zcta,state,metro,county,city,lat,lng
00601,PR,,Adjuntas,Adjuntas,18.18027,-66.75266
00602,PR,"Aguadilla, PR",Aguada,Aguada,18.36075,-67.17541
00603,PR,"Aguadilla, PR",Aguadilla,Aguadilla,18.45744,-67.12225
00606,PR,,Maricao,Maricao,18.16585,-66.93716
00610,PR,"Aguadilla, PR",Añasco,Anasco,18.2911,-67.12243
00611,PR,,Utuado,Angeles,18.27698,-66.80688
00612,PR,"San Juan, PR",Arecibo,Arecibo,18.41283,-66.7051
00616,PR,"San Juan, PR",Arecibo,Bajadero,18.41878,-66.6679
00617,PR,"San Juan, PR",Barceloneta,Barceloneta,18.44598,-66.56006
00622,PR,,Cabo Rojo,Boqueron,17.98892,-67.1566
00623,PR,,Cabo Rojo,Cabo Rojo,18.08429,-67.15336
00624,PR,,Peñuelas,Penuelas,18.05905,-66.71932
00627,PR,"San Juan, PR",Camuy,Camuy,18.41905,-66.86037
00631,PR,"Aguadilla, PR",Lares,Castaner,18.1852,-66.83169
00637,PR,,Sabana Grande,Sabana Grande,18.081,-66.94659
00638,PR,"San Juan, PR",Ciales,Ciales,18.28462,-66.5137
00641,PR,"Utuado, PR",Utuado,Utuado,18.26742,-66.70212
00646,PR,"San Juan, PR",Dorado,Dorado,18.43251,-66.28429
00647,PR,,Guánica,Ensenada,17.96667,-66.94266
00650,PR,"San Juan, PR",Florida,Florida,18.34487,-66.58347
00652,PR,"San Juan, PR",Arecibo,Garrochales,18.45614,-66.60194
00653,PR,,Guánica,Guanica,17.99413,-66.90266
00656,PR,,Guayanilla,Guayanilla,18.04186,-66.79123
00659,PR,"San Juan, PR",Hatillo,Hatillo,18.41036,-66.79691
00660,PR,"Mayagüez, PR",Hormigueros,Hormigueros,18.13412,-67.11399
00662,PR,"Aguadilla, PR",Isabela,Isabela,18.46622,-67.01508
00664,PR,,Jayuya,Jayuya,18.21064,-66.59066
00667,PR,,Lajas,Lajas,18.01246,-67.0417
00669,PR,"Aguadilla, PR",Lares,Lares,18.27019,-66.86727
00670,PR,"Aguadilla, PR",Las Marías,Las Marias,18.23782,-66.98852
00674,PR,"San Juan, PR",Manatí,Manati,18.42229,-66.4891
00676,PR,"Aguadilla, PR",Moca,Moca,18.37897,-67.08098
00677,PR,"Aguadilla, PR",Rincón,Rincon,18.33535,-67.23155
00678,PR,"San Juan, PR",Quebradillas,Quebradillas,18.42949,-66.93016
00680,PR,"Mayagüez, PR",Mayagüez,Mayaguez,18.16307,-67.36122
00682,PR,"Mayagüez, PR",Mayagüez,Mayaguez,18.22415,-67.15309
00683,PR,,San Germán,San German,18.10926,-67.03803
00685,PR,"Aguadilla, PR",San Sebastián,San Sebastian,18.33656,-66.97518
00687,PR,"San Juan, PR",Morovis,Morovis,18.31707,-66.42029
00688,PR,"San Juan, PR",Arecibo,Sabana Hoyos,18.3807,-66.62496
00690,PR,"Aguadilla, PR",Aguadilla,San Antonio,18.49363,-67.09734
00692,PR,"San Juan, PR",Vega Alta,Vega Alta,18.40905,-66.33768
00693,PR,"San Juan, PR",Vega Baja,Vega Baja,18.42633,-66.39811
00694,PR,"San Juan, PR",Vega Baja,Vega Baja,18.48327,-66.39269
00698,PR,,Yauco,Yauco,18.07274,-66.85519
00703,PR,"San Juan, PR",Aguas Buenas,Aguas Buenas,18.24739,-66.13143
00704,PR,"Coamo, PR",Salinas,Aguirre,17.97442,-66.22888
00705,PR,"San Juan, PR",Aibonito,Aibonito,18.1294,-66.26653
00707,PR,"San Juan, PR",Maunabo,Maunabo,18.01752,-65.92127
00714,PR,"Guayama, PR",Arroyo,Arroyo,17.9981,-66.05635
00715,PR,"Ponce, PR",Ponce,Mercedita,17.99738,-66.56104
00716,PR,"Ponce, PR",Ponce,Ponce,17.99942,-66.59868
00717,PR,"Ponce, PR",Ponce,Ponce,18.00272,-66.61146
00718,PR,"San Juan, PR",Naguabo,Naguabo,18.23145,-65.76067
00719,PR,"San Juan, PR",Naranjito,Naranjito,18.28879,-66.25316
00720,PR,"San Juan, PR",Orocovis,Orocovis,18.21559,-66.42421
00723,PR,"Guayama, PR",Patillas,Patillas,18.03139,-66.01122
00725,PR,"San Juan, PR",Caguas,Caguas,18.22052,-66.03962
00727,PR,"San Juan, PR",Caguas,Caguas,18.21142,-66.07374
00728,PR,"Ponce, PR",Ponce,Ponce,18.00697,-66.65995
00729,PR,"San Juan, PR",Canóvanas,Canovanas,18.33524,-65.88677
00730,PR,"Ponce, PR",Ponce,Ponce,18.03256,-66.61384
00731,PR,"Ponce, PR",Ponce,Ponce,18.09914,-66.63279
00735,PR,,Ceiba,Ceiba,18.2525,-65.67534
00736,PR,"San Juan, PR",Cayey,Cayey,18.10736,-66.14994
00738,PR,,Fajardo,Fajardo,18.31793,-65.66793
00739,PR,"San Juan, PR",Cidra,Cidra,18.17543,-66.16198
00740,PR,,Fajardo,Puerto Real,18.33251,-65.63419
00741,PR,"San Juan, PR",Humacao,Punta Santiago,18.16569,-65.75506
00745,PR,"San Juan, PR",Río Grande,Rio Grande,18.3466,-65.81382
00751,PR,"Coamo, PR",Salinas,Salinas,18.01205,-66.25871
00754,PR,"San Juan, PR",San Lorenzo,San Lorenzo,18.1447,-65.97565
00757,PR,,Santa Isabel,Santa Isabel,17.9933,-66.39056
00765,PR,,Vieques,Vieques,18.12365,-65.43013
00766,PR,"Ponce, PR",Villalba,Villalba,18.13039,-66.4757
00767,PR,"San Juan, PR",Yabucoa,Yabucoa,18.07033,-65.89618
00769,PR,"Coamo, PR",Coamo,Coamo,18.09459,-66.3607
00771,PR,"San Juan, PR",Las Piedras,Las Piedras,18.18797,-65.86916
00772,PR,"San Juan, PR",Loíza,Loiza,18.43048,-65.90377
00773,PR,,Luquillo,Luquillo,18.34073,-65.72756
00775,PR,,Culebra,Culebra,18.31387,-65.28618
00777,PR,"San Juan, PR",Juncos,Juncos,18.22365,-65.90904
00778,PR,"San Juan, PR",Gurabo,Gurabo,18.26319,-65.97938
00780,PR,"Ponce, PR",Ponce,Coto Laurel,18.09998,-66.57032
00782,PR,"San Juan, PR",Comerío,Comerio,18.22501,-66.22452
00783,PR,"San Juan, PR",Corozal,Corozal,18.30348,-66.32851
00784,PR,"Guayama, PR",Guayama,Guayama,18.00558,-66.13651
00786,PR,"San Juan, PR",Aibonito,La Plata,18.1357,-66.22881
00791,PR,"San Juan, PR",Humacao,Humacao,18.14391,-65.81398
00794,PR,"San Juan, PR",Barranquitas,Barranquitas,18.19934,-66.31179
00795,PR,"Ponce, PR",Juana Díaz,Juana Diaz,18.05128,-66.49485
00802,VI,,St. Thomas,St Thomas,18.34349,-64.9287
00820,VI,,St. Croix,Christiansted,17.7388,-64.70695
00830,VI,,St. John,St John,18.33857,-64.73802
00840,VI,,St. Croix,Frederiksted,17.72649,-64.84717
00850,VI,,St. Croix,Kingshill,17.72763,-64.79122
00851,VI,,St. Croix,Kingshill,17.74757,-64.78737
00901,PR,"San Juan, PR",San Juan,San Juan,18.46478,-66.10277
00906,PR,"San Juan, PR",San Juan,San Juan,18.46446,-66.09499
00907,PR,"San Juan, PR",San Juan,San Juan,18.45287,-66.08381
00909,PR,"San Juan, PR",San Juan,San Juan,18.44131,-66.06866
00911,PR,"San Juan, PR",San Juan,San Juan,18.45133,-66.05636
00912,PR,"San Juan, PR",San Juan,San Juan,18.44503,-66.05995
00913,PR,"San Juan, PR",San Juan,San Juan,18.45024,-66.04275
00915,PR,"San Juan, PR",San Juan,San Juan,18.43673,-66.04576
00917,PR,"San Juan, PR",San Juan,San Juan,18.4208,-66.04989
00918,PR,"San Juan, PR",San Juan,San Juan,18.42139,-66.06774
00920,PR,"San Juan, PR",San Juan,San Juan,18.41904,-66.09023
00921,PR,"San Juan, PR",San Juan,San Juan,18.39206,-66.0871
00923,PR,"San Juan, PR",San Juan,San Juan,18.41146,-66.03715
00924,PR,"San Juan, PR",San Juan,San Juan,18.39987,-66.01344
00925,PR,"San Juan, PR",San Juan,San Juan,18.40028,-66.05058
00926,PR,"San Juan, PR",San Juan,San Juan,18.34691,-66.05434
00927,PR,"San Juan, PR",San Juan,San Juan,18.38884,-66.07149
00934,PR,"San Juan, PR",Guaynabo,Fort Buchanan,18.41372,-66.11998
00949,PR,"San Juan, PR",Toa Baja,Toa Baja,18.43166,-66.21349
00950,PR,"San Juan, PR",Dorado,Toa Baja,18.46201,-66.23917
00951,PR,"San Juan, PR",Toa Baja,Toa Baja,18.43175,-66.25628
00952,PR,"San Juan, PR",Toa Baja,Sabana Seca,18.42874,-66.18897
00953,PR,"San Juan, PR",Toa Alta,Toa Alta,18.36319,-66.24764
00956,PR,"San Juan, PR",Bayamón,Bayamon,18.32121,-66.17185
00957,PR,"San Juan, PR",Bayamón,Bayamon,18.36696,-66.18857
00959,PR,"San Juan, PR",Bayamón,Bayamon,18.3852,-66.15583
00960,PR,"San Juan, PR",Bayamón,Bayamon,18.41674,-66.14365
00961,PR,"San Juan, PR",Bayamón,Bayamon,18.40987,-66.16415
00962,PR,"San Juan, PR",Cataño,Catano,18.43514,-66.13949
00965,PR,"San Juan, PR",Guaynabo,Guaynabo,18.42853,-66.11175
00966,PR,"San Juan, PR",Guaynabo,Guaynabo,18.39784,-66.11394
00968,PR,"San Juan, PR",Guaynabo,Guaynabo,18.40609,-66.10123
00969,PR,"San Juan, PR",Guaynabo,Guaynabo,18.36696,-66.11
00971,PR,"San Juan, PR",Guaynabo,Guaynabo,18.32067,-66.11751
00976,PR,"San Juan, PR",Trujillo Alto,Trujillo Alto,18.33903,-65.99286
00979,PR,"San Juan, PR",Carolina,Carolina,18.43734,-66.0089
00982,PR,"San Juan, PR",Carolina,Carolina,18.40961,-65.99143
00983,PR,"San Juan, PR",Carolina,Carolina,18.41788,-65.98104
00985,PR,"San Juan, PR",Carolina,Carolina,18.40628,-65.94767
00987,PR,"San Juan, PR",Carolina,Carolina,18.34115,-65.94257
01001,MA,"Springfield, MA",Hampden,Agawam,42.06262,-72.62521
01002,MA,"Springfield, MA",Hampshire,Amherst,42.37633,-72.46462
01003,MA,"Springfield, MA",Hampshire,Amherst,42.39135,-72.52327
01005,MA,"Worcester, MA",Worcester,Barre,42.42117,-72.10655
01007,MA,"Springfield, MA",Hampshire,Belchertown,42.28163,-72.40009
01008,MA,"Springfield, MA",Hampden,Blandford,42.18234,-72.95819
01009,MA,"Springfield, MA",Hampden,Bondsville,42.21133,-72.34189
01010,MA,"Springfield, MA",Hampden,Brimfield,42.12904,-72.20597
01011,MA,"Springfield, MA",Hampden,Chester,42.30233,-72.96448
01012,MA,"Springfield, MA",Hampshire,Chesterfield,42.38495,-72.84675
01013,MA,"Springfield, MA",Hampden,Chicopee,42.16059,-72.60788
01020,MA,"Springfield, MA",Hampden,Chicopee,42.17618,-72.56538
01022,MA,"Springfield, MA",Hampden,Chicopee,42.19721,-72.54249
01026,MA,"Springfield, MA",Hampshire,Cummington,42.46858,-72.92296
01027,MA,"Springfield, MA",Hampshire,Easthampton,42.29506,-72.74303
01028,MA,"Springfield, MA",Hampden,East Longmeadow,42.05967,-72.49899
01029,MA,"Pittsfield, MA",Berkshire,East Otis,42.19402,-73.05067
01030,MA,"Springfield, MA",Hampden,Feeding Hills,42.06869,-72.67967
01031,MA,"Worcester, MA",Worcester,Gilbertville,42.32782,-72.19191
01032,MA,"Springfield, MA",Hampshire,Goshen,42.45313,-72.81965
01033,MA,"Springfield, MA",Hampshire,Granby,42.26082,-72.50361
01034,MA,"Springfield, MA",Hampden,Granville,42.0826,-72.95611
01035,MA,"Springfield, MA",Hampshire,Hadley,42.35563,-72.5692
01036,MA,"Springfield, MA",Hampden,Hampden,42.0638,-72.4157
01037,MA,"Worcester, MA",Worcester,Hardwick,42.37063,-72.19466
01038,MA,"Springfield, MA",Hampshire,Hatfield,42.38466,-72.60559
01039,MA,"Springfield, MA",Hampshire,Haydenville,42.41049,-72.69188
01040,MA,"Springfield, MA",Hampden,Holyoke,42.21251,-72.64109
01050,MA,"Springfield, MA",Hampshire,Huntington,42.29092,-72.87526
01053,MA,"Springfield, MA",Hampshire,Leeds,42.35205,-72.71032
01054,MA,"Springfield, MA",Franklin,Leverett,42.47381,-72.48768
01056,MA,"Springfield, MA",Hampden,Ludlow,42.19211,-72.45805
01057,MA,"Springfield, MA",Hampden,Monson,42.09118,-72.32392
01060,MA,"Springfield, MA",Hampshire,Northampton,42.32218,-72.63126
01062,MA,"Springfield, MA",Hampshire,Florence,42.32146,-72.69244
01063,MA,"Springfield, MA",Hampshire,Northampton,42.31962,-72.63951
01066,MA,"Springfield, MA",Hampshire,North Hatfield,42.40742,-72.64032
01068,MA,"Worcester, MA",Worcester,Oakham,42.35125,-72.04776
01069,MA,"Springfield, MA",Hampden,Palmer,42.18798,-72.30578
01070,MA,"Springfield, MA",Hampshire,Plainfield,42.51958,-72.92504
01071,MA,"Springfield, MA",Hampden,Russell,42.16029,-72.8598
01072,MA,"Springfield, MA",Franklin,Shutesbury,42.46327,-72.41893
01073,MA,"Springfield, MA",Hampshire,Southampton,42.23084,-72.73856
01074,MA,"Worcester, MA",Worcester,South Barre,42.3837,-72.10021
01075,MA,"Springfield, MA",Hampshire,South Hadley,42.25672,-72.57928
01077,MA,"Springfield, MA",Hampden,Southwick,42.05441,-72.77851
01079,MA,"Springfield, MA",Hampden,Thorndike,42.18508,-72.33406
01080,MA,"Springfield, MA",Hampden,Three Rivers,42.18228,-72.36515
01081,MA,"Springfield, MA",Hampden,Wales,42.06232,-72.23085
01082,MA,"Springfield, MA",Hampshire,Ware,42.29816,-72.27676
01083,MA,"Worcester, MA",Worcester,Warren,42.20652,-72.19906
01084,MA,"Springfield, MA",Hampshire,West Chesterfield,42.38589,-72.88165
01085,MA,"Springfield, MA",Hampden,Westfield,42.15375,-72.76961
01088,MA,"Springfield, MA",Hampshire,West Hatfield,42.38981,-72.6465
01089,MA,"Springfield, MA",Hampden,West Springfield,42.12532,-72.65025
01092,MA,"Worcester, MA",Worcester,West Warren,42.20008,-72.23715
01093,MA,"Springfield, MA",Franklin,Whately,42.44335,-72.65099
01094,MA,"Worcester, MA",Worcester,Wheelwright,42.36481,-72.13548
01095,MA,"Springfield, MA",Hampden,Wilbraham,42.12763,-72.42994
01096,MA,"Springfield, MA",Hampshire,Williamsburg,42.40968,-72.77213
01097,MA,"Springfield, MA",Hampden,Woronoco,42.17722,-72.83175
01098,MA,"Springfield, MA",Hampshire,Worthington,42.39551,-72.94315
01103,MA,"Springfield, MA",Hampden,Springfield,42.10443,-72.58997
01104,MA,"Springfield, MA",Hampden,Springfield,42.13326,-72.56733
01105,MA,"Springfield, MA",Hampden,Springfield,42.09911,-72.57865
01106,MA,"Springfield, MA",Hampden,Longmeadow,42.04877,-72.57163
01107,MA,"Springfield, MA",Hampden,Springfield,42.12116,-72.60642
01108,MA,"Springfield, MA",Hampden,Springfield,42.0814,-72.55866
01109,MA,"Springfield, MA",Hampden,Springfield,42.11839,-72.54876
01118,MA,"Springfield, MA",Hampden,Springfield,42.09476,-72.5253
01119,MA,"Springfield, MA",Hampden,Springfield,42.12452,-72.51126
01128,MA,"Springfield, MA",Hampden,Springfield,42.09497,-72.48806
01129,MA,"Springfield, MA",Hampden,Springfield,42.1211,-72.4877
01144,MA,,Hampden,Springfield,42.10189,-72.59091
01151,MA,"Springfield, MA",Hampden,Indian Orchard,42.15294,-72.50883
01201,MA,"Pittsfield, MA",Berkshire,Pittsfield,42.45614,-73.28114
01220,MA,"Pittsfield, MA",Berkshire,Adams,42.62686,-73.11873
01222,MA,"Pittsfield, MA",Berkshire,Ashley Falls,42.06242,-73.32146
01223,MA,"Pittsfield, MA",Berkshire,Becket,42.31118,-73.09835
01224,MA,"Pittsfield, MA",Berkshire,Berkshire,42.50622,-73.19841
01225,MA,"Pittsfield, MA",Berkshire,Cheshire,42.56385,-73.1512
01226,MA,"Pittsfield, MA",Berkshire,Dalton,42.47954,-73.15329
01229,MA,"Pittsfield, MA",Berkshire,Glendale,42.29411,-73.35227
01230,MA,"Pittsfield, MA",Berkshire,Great Barrington,42.18197,-73.34244
01235,MA,"Pittsfield, MA",Berkshire,Hinsdale,42.43181,-73.07336
01236,MA,"Pittsfield, MA",Berkshire,Housatonic,42.26923,-73.37999
01237,MA,"Pittsfield, MA",Berkshire,Lanesborough,42.5529,-73.25373
01238,MA,"Pittsfield, MA",Berkshire,Lee,42.30072,-73.22553
01240,MA,"Pittsfield, MA",Berkshire,Lenox,42.37567,-73.26466
01242,MA,"Pittsfield, MA",Berkshire,Lenox Dale,42.3334,-73.24967
01243,MA,"Springfield, MA",Hampshire,Middlefield,42.34752,-73.03467
01244,MA,"Pittsfield, MA",Berkshire,Mill River,42.10924,-73.27475
01245,MA,"Pittsfield, MA",Berkshire,Monterey,42.19043,-73.21579
01247,MA,"Pittsfield, MA",Berkshire,North Adams,42.69813,-73.09264
01253,MA,"Pittsfield, MA",Berkshire,Otis,42.20751,-73.1118
01254,MA,"Pittsfield, MA",Berkshire,Richmond,42.37972,-73.36608
01255,MA,"Pittsfield, MA",Berkshire,Sandisfield,42.1068,-73.12213
01256,MA,"Pittsfield, MA",Berkshire,Savoy,42.59627,-73.01958
01257,MA,"Pittsfield, MA",Berkshire,Sheffield,42.0976,-73.37241
01258,MA,"Pittsfield, MA",Berkshire,South Egremont,42.09396,-73.46616
01259,MA,"Pittsfield, MA",Berkshire,Southfield,42.07316,-73.23282
01260,MA,"Pittsfield, MA",Berkshire,South Lee,42.26663,-73.2712
01262,MA,"Pittsfield, MA",Berkshire,Stockbridge,42.30433,-73.32013
01264,MA,"Pittsfield, MA",Berkshire,Tyringham,42.23997,-73.19686
01266,MA,"Pittsfield, MA",Berkshire,West Stockbridge,42.30264,-73.39846
01267,MA,"Pittsfield, MA",Berkshire,Williamstown,42.66593,-73.24209
01270,MA,"Pittsfield, MA",Berkshire,Windsor,42.51297,-73.04859
01301,MA,"Springfield, MA",Franklin,Greenfield,42.62375,-72.60379
01330,MA,"Springfield, MA",Franklin,Ashfield,42.51772,-72.81556
01331,MA,"Worcester, MA",Worcester,Athol,42.56793,-72.18324
01337,MA,"Springfield, MA",Franklin,Bernardston,42.69512,-72.57731
01338,MA,"Springfield, MA",Franklin,Buckland,42.5814,-72.80309
01339,MA,"Springfield, MA",Franklin,Charlemont,42.61099,-72.88846
01340,MA,"Springfield, MA",Franklin,Colrain,42.68805,-72.73205
01341,MA,"Springfield, MA",Franklin,Conway,42.50734,-72.70221
01342,MA,"Springfield, MA",Franklin,Deerfield,42.54384,-72.6058
01343,MA,"Pittsfield, MA",Berkshire,Drury,42.66766,-72.98822
01344,MA,"Springfield, MA",Franklin,Erving,42.60756,-72.42916
01346,MA,"Springfield, MA",Franklin,Heath,42.6706,-72.81323
01347,MA,"Springfield, MA",Franklin,Lake Pleasant,42.56027,-72.51321
01349,MA,"Springfield, MA",Franklin,Millers Falls,42.56656,-72.47045
01350,MA,"Springfield, MA",Franklin,Monroe Bridge,42.72259,-72.98291
01351,MA,"Springfield, MA",Franklin,Montague,42.54162,-72.52069
01354,MA,"Springfield, MA",Franklin,Gill,42.63282,-72.51136
01355,MA,"Springfield, MA",Franklin,New Salem,42.45101,-72.33141
01360,MA,"Springfield, MA",Franklin,Northfield,42.67575,-72.446
01364,MA,"Springfield, MA",Franklin,Orange,42.60449,-72.29263
01366,MA,"Worcester, MA",Worcester,Petersham,42.48858,-72.18564
01367,MA,"Springfield, MA",Franklin,Rowe,42.69674,-72.91387
01368,MA,"Worcester, MA",Worcester,Royalston,42.67815,-72.18557
01370,MA,"Springfield, MA",Franklin,Shelburne Falls,42.59607,-72.72915
01373,MA,"Springfield, MA",Franklin,South Deerfield,42.47292,-72.61516
01375,MA,"Springfield, MA",Franklin,Sunderland,42.46475,-72.55489
01376,MA,"Springfield, MA",Franklin,Turners Falls,42.59273,-72.54591
01378,MA,"Springfield, MA",Franklin,Warwick,42.67711,-72.34057
01379,MA,"Springfield, MA",Franklin,Wendell,42.54149,-72.3989
01380,MA,,Franklin,Wendell Depot,42.58675,-72.40264
01420,MA,"Worcester, MA",Worcester,Fitchburg,42.58559,-71.81693
01430,MA,"Worcester, MA",Worcester,Ashburnham,42.66069,-71.9232
01431,MA,"Boston, MA",Middlesex,Ashby,42.67652,-71.82322
01432,MA,"Boston, MA",Middlesex,Ayer,42.56351,-71.57059
01434,MA,"Worcester, MA",Worcester,Devens,42.53149,-71.61663
01436,MA,"Worcester, MA",Worcester,Baldwinville,42.60579,-72.08958
01438,MA,"Worcester, MA",Worcester,East Templeton,42.56028,-72.03583
01440,MA,"Worcester, MA",Worcester,Gardner,42.58797,-71.98649
01450,MA,"Boston, MA",Middlesex,Groton,42.61368,-71.56139
01451,MA,"Worcester, MA",Worcester,Harvard,42.50005,-71.57754
01452,MA,"Worcester, MA",Worcester,Hubbardston,42.48378,-72.00514
01453,MA,"Worcester, MA",Worcester,Leominster,42.51961,-71.76583
01460,MA,"Boston, MA",Middlesex,Littleton,42.53503,-71.4891
01462,MA,"Worcester, MA",Worcester,Lunenburg,42.58994,-71.72036
01463,MA,"Boston, MA",Middlesex,Pepperell,42.67126,-71.60429
01464,MA,"Boston, MA",Middlesex,Shirley,42.57411,-71.6475
01468,MA,"Worcester, MA",Worcester,Templeton,42.55324,-72.06879
01469,MA,"Boston, MA",Middlesex,Townsend,42.66514,-71.69161
01473,MA,"Worcester, MA",Worcester,Westminster,42.55122,-71.90266
01474,MA,"Boston, MA",Middlesex,West Townsend,42.67088,-71.7508
01475,MA,"Worcester, MA",Worcester,Winchendon,42.66675,-72.04902
01501,MA,"Worcester, MA",Worcester,Auburn,42.19689,-71.84549
01503,MA,"Worcester, MA",Worcester,Berlin,42.38378,-71.63552
01504,MA,"Worcester, MA",Worcester,Blackstone,42.0399,-71.53125
01505,MA,"Worcester, MA",Worcester,Boylston,42.35633,-71.72123
01506,MA,"Worcester, MA",Worcester,Brookfield,42.19364,-72.10441
01507,MA,"Worcester, MA",Worcester,Charlton,42.13509,-71.96803
01510,MA,"Worcester, MA",Worcester,Clinton,42.4119,-71.68883
01515,MA,"Worcester, MA",Worcester,East Brookfield,42.20328,-72.04669
01516,MA,"Worcester, MA",Worcester,Douglas,42.0528,-71.75106
01518,MA,"Worcester, MA",Worcester,Fiskdale,42.11342,-72.11632
01519,MA,"Worcester, MA",Worcester,Grafton,42.20077,-71.67892
01520,MA,"Worcester, MA",Worcester,Holden,42.33685,-71.85181
01521,MA,"Springfield, MA",Hampden,Holland,42.06012,-72.16592
01522,MA,"Worcester, MA",Worcester,Jefferson,42.38142,-71.87111
01523,MA,"Worcester, MA",Worcester,Lancaster,42.48176,-71.68079
01524,MA,"Worcester, MA",Worcester,Leicester,42.24919,-71.91989
01525,MA,"Worcester, MA",Worcester,Linwood,42.09899,-71.64296
01527,MA,"Worcester, MA",Worcester,Millbury,42.19228,-71.77397
01529,MA,"Worcester, MA",Worcester,Millville,42.03906,-71.57767
01531,MA,"Worcester, MA",Worcester,New Braintree,42.31929,-72.12794
01532,MA,"Worcester, MA",Worcester,Northborough,42.32314,-71.64621
01534,MA,"Worcester, MA",Worcester,Northbridge,42.13991,-71.64433
01535,MA,"Worcester, MA",Worcester,North Brookfield,42.2695,-72.07794
01536,MA,"Worcester, MA",Worcester,North Grafton,42.23189,-71.69219
01537,MA,"Worcester, MA",Worcester,North Oxford,42.16177,-71.89217
01540,MA,"Worcester, MA",Worcester,Oxford,42.11649,-71.85819
01541,MA,"Worcester, MA",Worcester,Princeton,42.45649,-71.88128
01542,MA,"Worcester, MA",Worcester,Rochdale,42.20241,-71.90995
01543,MA,"Worcester, MA",Worcester,Rutland,42.38482,-71.96726
01545,MA,"Worcester, MA",Worcester,Shrewsbury,42.28419,-71.71558
01550,MA,"Worcester, MA",Worcester,Southbridge,42.06039,-72.03377
01560,MA,"Worcester, MA",Worcester,South Grafton,42.17496,-71.67762
01561,MA,"Worcester, MA",Worcester,South Lancaster,42.44581,-71.68845
01562,MA,"Worcester, MA",Worcester,Spencer,42.24715,-71.99189
01564,MA,"Worcester, MA",Worcester,Sterling,42.44124,-71.77297
01566,MA,"Worcester, MA",Worcester,Sturbridge,42.1047,-72.07745
01568,MA,"Worcester, MA",Worcester,Upton,42.17694,-71.60516
01569,MA,"Worcester, MA",Worcester,Uxbridge,42.05895,-71.63741
01570,MA,"Worcester, MA",Worcester,Webster,42.05206,-71.8485
01571,MA,"Worcester, MA",Worcester,Dudley,42.05501,-71.93519
01581,MA,"Worcester, MA",Worcester,Westborough,42.26815,-71.61402
01583,MA,"Worcester, MA",Worcester,West Boylston,42.37034,-71.78502
01585,MA,"Worcester, MA",Worcester,West Brookfield,42.23762,-72.16311
01588,MA,"Worcester, MA",Worcester,Whitinsville,42.11837,-71.66836
01590,MA,"Worcester, MA",Worcester,Sutton,42.13387,-71.75179
01602,MA,"Worcester, MA",Worcester,Worcester,42.27219,-71.84946
01603,MA,"Worcester, MA",Worcester,Worcester,42.24373,-71.84429
01604,MA,"Worcester, MA",Worcester,Worcester,42.25085,-71.7683
01605,MA,"Worcester, MA",Worcester,Worcester,42.28979,-71.78802
01606,MA,"Worcester, MA",Worcester,Worcester,42.31367,-71.79614
01607,MA,"Worcester, MA",Worcester,Worcester,42.22684,-71.79037
01608,MA,"Worcester, MA",Worcester,Worcester,42.2621,-71.80145
01609,MA,"Worcester, MA",Worcester,Worcester,42.28592,-71.82853
01610,MA,"Worcester, MA",Worcester,Worcester,42.24645,-71.80968
01611,MA,"Worcester, MA",Worcester,Cherry Valley,42.23945,-71.87702
01612,MA,"Worcester, MA",Worcester,Paxton,42.31037,-71.93095
01701,MA,"Boston, MA",Middlesex,Framingham,42.32195,-71.43796
01702,MA,"Boston, MA",Middlesex,Framingham,42.28242,-71.43428
01718,MA,"Boston, MA",Middlesex,Acton,42.52165,-71.42983
01719,MA,"Boston, MA",Middlesex,Boxborough,42.48837,-71.51779
01720,MA,"Boston, MA",Middlesex,Acton,42.48397,-71.43809
01721,MA,"Boston, MA",Middlesex,Ashland,42.25726,-71.46867
01730,MA,"Boston, MA",Middlesex,Bedford,42.4995,-71.27799
01731,MA,"Boston, MA",Middlesex,Hanscom Afb,42.46422,-71.28202
01740,MA,"Worcester, MA",Worcester,Bolton,42.43616,-71.60728
01741,MA,"Boston, MA",Middlesex,Carlisle,42.53001,-71.35128
01742,MA,"Boston, MA",Middlesex,Concord,42.46221,-71.36504
01745,MA,"Worcester, MA",Worcester,Fayville,42.29155,-71.50101
01746,MA,"Boston, MA",Middlesex,Holliston,42.19775,-71.44499
01747,MA,"Worcester, MA",Worcester,Hopedale,42.12477,-71.535
01748,MA,"Boston, MA",Middlesex,Hopkinton,42.2255,-71.53781
01749,MA,"Boston, MA",Middlesex,Hudson,42.38868,-71.54648
01752,MA,"Boston, MA",Middlesex,Marlborough,42.3494,-71.54681
01754,MA,"Boston, MA",Middlesex,Maynard,42.4264,-71.45607
01756,MA,"Worcester, MA",Worcester,Mendon,42.09301,-71.55146
01757,MA,"Worcester, MA",Worcester,Milford,42.15723,-71.51978
01760,MA,"Boston, MA",Middlesex,Natick,42.28436,-71.34966
01770,MA,"Boston, MA",Middlesex,Sherborn,42.23416,-71.37532
01772,MA,"Worcester, MA",Worcester,Southborough,42.30144,-71.5304
01773,MA,"Boston, MA",Middlesex,Lincoln,42.42572,-71.31013
01775,MA,"Boston, MA",Middlesex,Stow,42.42983,-71.51146
01776,MA,"Boston, MA",Middlesex,Sudbury,42.38456,-71.42316
01778,MA,"Boston, MA",Middlesex,Wayland,42.3583,-71.35895
01801,MA,"Boston, MA",Middlesex,Woburn,42.48694,-71.15415
01803,MA,"Boston, MA",Middlesex,Burlington,42.5028,-71.20147
01810,MA,"Boston, MA",Essex,Andover,42.64669,-71.16517
01821,MA,"Boston, MA",Middlesex,Billerica,42.54999,-71.25206
01824,MA,"Boston, MA",Middlesex,Chelmsford,42.59156,-71.35553
01826,MA,"Boston, MA",Middlesex,Dracut,42.68323,-71.30063
01827,MA,"Boston, MA",Middlesex,Dunstable,42.67643,-71.50052
01830,MA,"Boston, MA",Essex,Haverhill,42.7959,-71.05323
01832,MA,"Boston, MA",Essex,Haverhill,42.79099,-71.13133
01833,MA,"Boston, MA",Essex,Georgetown,42.72409,-70.9821
01834,MA,"Boston, MA",Essex,Groveland,42.75198,-71.01486
01835,MA,"Boston, MA",Essex,Haverhill,42.75292,-71.08602
01840,MA,"Boston, MA",Essex,Lawrence,42.70695,-71.16014
01841,MA,"Boston, MA",Essex,Lawrence,42.71077,-71.16494
01843,MA,"Boston, MA",Essex,Lawrence,42.68985,-71.16095
01844,MA,"Boston, MA",Essex,Methuen,42.73426,-71.18858
01845,MA,"Boston, MA",Essex,North Andover,42.67132,-71.08669
01850,MA,"Boston, MA",Middlesex,Lowell,42.65569,-71.30292
01851,MA,"Boston, MA",Middlesex,Lowell,42.62915,-71.33674
01852,MA,"Boston, MA",Middlesex,Lowell,42.63231,-71.29538
01854,MA,"Boston, MA",Middlesex,Lowell,42.64939,-71.34827
01860,MA,"Boston, MA",Essex,Merrimac,42.83858,-71.01194
01862,MA,"Boston, MA",Middlesex,North Billerica,42.57427,-71.29437
01863,MA,"Boston, MA",Middlesex,North Chelmsford,42.63274,-71.39132
01864,MA,"Boston, MA",Middlesex,North Reading,42.58156,-71.08759
01867,MA,"Boston, MA",Middlesex,Reading,42.53505,-71.1055
01876,MA,"Boston, MA",Middlesex,Tewksbury,42.61206,-71.22733
01879,MA,"Boston, MA",Middlesex,Tyngsboro,42.66626,-71.42911
01880,MA,"Boston, MA",Middlesex,Wakefield,42.50348,-71.06559
01886,MA,"Boston, MA",Middlesex,Westford,42.58642,-71.44008
01887,MA,"Boston, MA",Middlesex,Wilmington,42.56091,-71.16541
01890,MA,"Boston, MA",Middlesex,Winchester,42.45177,-71.14628
01901,MA,"Boston, MA",Essex,Lynn,42.46125,-70.94639
01902,MA,"Boston, MA",Essex,Lynn,42.4712,-70.93983
01904,MA,"Boston, MA",Essex,Lynn,42.49151,-70.97166
01905,MA,"Boston, MA",Essex,Lynn,42.46355,-70.9733
01906,MA,"Boston, MA",Essex,Saugus,42.46922,-71.01299
01907,MA,"Boston, MA",Essex,Swampscott,42.47572,-70.90684
01908,MA,"Boston, MA",Essex,Nahant,42.42856,-70.92614
01913,MA,"Boston, MA",Essex,Amesbury,42.85297,-70.94459
01915,MA,"Boston, MA",Essex,Beverly,42.56841,-70.8647
01921,MA,"Boston, MA",Essex,Boxford,42.6815,-71.01887
01922,MA,"Boston, MA",Essex,Byfield,42.75862,-70.91758
01923,MA,"Boston, MA",Essex,Danvers,42.57398,-70.94923
01929,MA,"Boston, MA",Essex,Essex,42.63478,-70.77684
01930,MA,"Boston, MA",Essex,Gloucester,42.62605,-70.68966
01937,MA,"Boston, MA",Essex,Hathorne,42.58579,-70.98406
01938,MA,"Boston, MA",Essex,Ipswich,42.68568,-70.83989
01940,MA,"Boston, MA",Essex,Lynnfield,42.53523,-71.03695
01944,MA,"Boston, MA",Essex,Manchester,42.58154,-70.76825
01945,MA,"Boston, MA",Essex,Marblehead,42.49924,-70.86348
01949,MA,"Boston, MA",Essex,Middleton,42.6043,-71.01641
01950,MA,"Boston, MA",Essex,Newburyport,42.81237,-70.88785
01951,MA,"Boston, MA",Essex,Newbury,42.77742,-70.85022
01952,MA,"Boston, MA",Essex,Salisbury,42.84655,-70.86163
01960,MA,"Boston, MA",Essex,Peabody,42.53374,-70.97222
01965,MA,,Essex,Prides Crossing,42.56294,-70.82996
01966,MA,"Boston, MA",Essex,Rockport,42.65432,-70.62227
01969,MA,"Boston, MA",Essex,Rowley,42.72235,-70.88832
01970,MA,"Boston, MA",Essex,Salem,42.51298,-70.90266
01982,MA,"Boston, MA",Essex,South Hamilton,42.62669,-70.85789
01983,MA,"Boston, MA",Essex,Topsfield,42.63728,-70.94251
01984,MA,"Boston, MA",Essex,Wenham,42.60078,-70.8826
01985,MA,"Boston, MA",Essex,West Newbury,42.7939,-70.96906
02019,MA,"Boston, MA",Norfolk,Bellingham,42.0777,-71.47407
02021,MA,"Boston, MA",Norfolk,Canton,42.17504,-71.12645
02025,MA,"Boston, MA",Norfolk,Cohasset,42.23603,-70.81906
02026,MA,"Boston, MA",Norfolk,Dedham,42.24665,-71.1777
02030,MA,"Boston, MA",Norfolk,Dover,42.2366,-71.28421
02032,MA,"Boston, MA",Norfolk,East Walpole,42.15489,-71.2155
02035,MA,"Boston, MA",Norfolk,Foxboro,42.06266,-71.24613
02038,MA,"Boston, MA",Norfolk,Franklin,42.08622,-71.41126
02043,MA,"Boston, MA",Plymouth,Hingham,42.21678,-70.88494
02045,MA,"Boston, MA",Plymouth,Hull,42.28437,-70.88266
02047,MA,"Boston, MA",Plymouth,Humarock,42.14582,-70.69603
02048,MA,"Providence, RI",Bristol,Mansfield,42.01626,-71.21868
02050,MA,"Boston, MA",Plymouth,Marshfield,42.11443,-70.71487
02052,MA,"Boston, MA",Norfolk,Medfield,42.1848,-71.30501
02053,MA,"Boston, MA",Norfolk,Medway,42.15352,-71.42906
02054,MA,"Boston, MA",Norfolk,Millis,42.1693,-71.36261
02056,MA,"Boston, MA",Norfolk,Norfolk,42.11632,-71.32952
02061,MA,"Boston, MA",Plymouth,Norwell,42.16075,-70.81772
02062,MA,"Boston, MA",Norfolk,Norwood,42.18563,-71.19464
02066,MA,"Boston, MA",Plymouth,Scituate,42.20129,-70.76155
02067,MA,"Boston, MA",Norfolk,Sharon,42.10778,-71.18183
02071,MA,"Boston, MA",Norfolk,South Walpole,42.10392,-71.27002
02072,MA,"Boston, MA",Norfolk,Stoughton,42.1192,-71.10189
02081,MA,"Boston, MA",Norfolk,Walpole,42.14689,-71.25916
02090,MA,"Boston, MA",Norfolk,Westwood,42.22024,-71.21057
02093,MA,"Boston, MA",Norfolk,Wrentham,42.05129,-71.35522
02108,MA,"Boston, MA",Suffolk,Boston,42.35657,-71.06516
02109,MA,"Boston, MA",Suffolk,Boston,42.36498,-71.05277
02110,MA,"Boston, MA",Suffolk,Boston,42.35797,-71.05189
02111,MA,"Boston, MA",Suffolk,Boston,42.35067,-71.06054
02113,MA,"Boston, MA",Suffolk,Boston,42.36526,-71.05524
02114,MA,"Boston, MA",Suffolk,Boston,42.36337,-71.06686
02115,MA,"Boston, MA",Suffolk,Boston,42.34046,-71.09481
02116,MA,"Boston, MA",Suffolk,Boston,42.35105,-71.07638
02118,MA,"Boston, MA",Suffolk,Boston,42.33806,-71.07057
02119,MA,"Boston, MA",Suffolk,Roxbury,42.32405,-71.08522
02120,MA,"Boston, MA",Suffolk,Roxbury Crossing,42.33212,-71.09654
02121,MA,"Boston, MA",Suffolk,Dorchester,42.3057,-71.08693
02122,MA,"Boston, MA",Suffolk,Dorchester,42.29427,-71.05185
02124,MA,"Boston, MA",Suffolk,Dorchester Center,42.28583,-71.07114
02125,MA,"Boston, MA",Suffolk,Dorchester,42.31578,-71.0562
02126,MA,"Boston, MA",Suffolk,Mattapan,42.27588,-71.0918
02127,MA,"Boston, MA",Suffolk,South Boston,42.33455,-71.03875
02128,MA,"Boston, MA",Suffolk,East Boston,42.37324,-71.01616
02129,MA,"Boston, MA",Suffolk,Charlestown,42.37975,-71.06167
02130,MA,"Boston, MA",Suffolk,Jamaica Plain,42.30823,-71.11515
02131,MA,"Boston, MA",Suffolk,Roslindale,42.28392,-71.12468
02132,MA,"Boston, MA",Suffolk,West Roxbury,42.27931,-71.16072
02133,MA,,Suffolk,Boston,42.35838,-71.06383
02134,MA,"Boston, MA",Suffolk,Allston,42.35855,-71.12931
02135,MA,"Boston, MA",Suffolk,Brighton,42.34989,-71.15417
02136,MA,"Boston, MA",Suffolk,Hyde Park,42.25505,-71.12662
02138,MA,"Boston, MA",Middlesex,Cambridge,42.37997,-71.13446
02139,MA,"Boston, MA",Middlesex,Cambridge,42.36224,-71.10253
02140,MA,"Boston, MA",Middlesex,Cambridge,42.39332,-71.13342
02141,MA,"Boston, MA",Middlesex,Cambridge,42.37041,-71.08218
02142,MA,"Boston, MA",Middlesex,Cambridge,42.36295,-71.08189
02143,MA,"Boston, MA",Middlesex,Somerville,42.38142,-71.09677
02144,MA,"Boston, MA",Middlesex,Somerville,42.40088,-71.122
02145,MA,"Boston, MA",Middlesex,Somerville,42.39206,-71.0895
02148,MA,"Boston, MA",Middlesex,Malden,42.43048,-71.05762
02149,MA,"Boston, MA",Middlesex,Everett,42.40643,-71.05446
02150,MA,"Boston, MA",Suffolk,Chelsea,42.39587,-71.03251
02151,MA,"Boston, MA",Suffolk,Revere,42.41887,-71.004
02152,MA,"Boston, MA",Suffolk,Winthrop,42.37724,-70.98115
02155,MA,"Boston, MA",Middlesex,Medford,42.42324,-71.10878
02163,MA,"Boston, MA",Suffolk,Boston,42.36717,-71.12509
02169,MA,"Boston, MA",Norfolk,Quincy,42.23971,-71.01802
02170,MA,"Boston, MA",Norfolk,Quincy,42.26644,-71.01621
02171,MA,"Boston, MA",Norfolk,Quincy,42.28709,-71.02604
02176,MA,"Boston, MA",Middlesex,Melrose,42.45561,-71.05901
02180,MA,"Boston, MA",Middlesex,Stoneham,42.47396,-71.09705
02184,MA,"Boston, MA",Norfolk,Braintree,42.20386,-71.0022
02186,MA,"Boston, MA",Norfolk,Milton,42.23854,-71.08464
02188,MA,"Boston, MA",Norfolk,Weymouth,42.20724,-70.95764
02189,MA,"Boston, MA",Norfolk,East Weymouth,42.2111,-70.93135
02190,MA,"Boston, MA",Norfolk,South Weymouth,42.16625,-70.95253
02191,MA,"Boston, MA",Norfolk,North Weymouth,42.24434,-70.94378
02199,MA,"Boston, MA",Suffolk,Boston,42.34748,-71.08199
02203,MA,"Boston, MA",Suffolk,Boston,42.36144,-71.05945
02205,MA,,Suffolk,Boston,42.34935,-71.05564
02210,MA,"Boston, MA",Suffolk,Boston,42.34815,-71.03942
02215,MA,"Boston, MA",Suffolk,Boston,42.34741,-71.10276
02301,MA,"Boston, MA",Plymouth,Brockton,42.07791,-71.04223
02302,MA,"Boston, MA",Plymouth,Brockton,42.08792,-70.99864
02322,MA,"Boston, MA",Norfolk,Avon,42.12666,-71.04922
02324,MA,"Boston, MA",Plymouth,Bridgewater,41.97272,-70.97498
02325,MA,,Plymouth,Bridgewater,41.98875,-70.96449
02330,MA,"Boston, MA",Plymouth,Carver,41.87388,-70.7563
02332,MA,"Boston, MA",Plymouth,Duxbury,42.04651,-70.71388
02333,MA,"Boston, MA",Plymouth,East Bridgewater,42.03521,-70.94235
02338,MA,"Boston, MA",Plymouth,Halifax,41.99138,-70.86326
02339,MA,"Boston, MA",Plymouth,Hanover,42.12241,-70.85665
02341,MA,"Boston, MA",Plymouth,Hanson,42.05604,-70.87251
02343,MA,"Boston, MA",Norfolk,Holbrook,42.14733,-71.00484
02346,MA,"Boston, MA",Plymouth,Middleboro,41.88034,-70.87446
02347,MA,"Boston, MA",Plymouth,Lakeville,41.83101,-70.9594
02350,MA,,Plymouth,Monponsett,42.02043,-70.84562
02351,MA,"Boston, MA",Plymouth,Abington,42.11805,-70.95905
02356,MA,"Providence, RI",Bristol,North Easton,42.05519,-71.12071
02357,MA,"Providence, RI",Bristol,North Easton,42.06224,-71.07751
02359,MA,"Boston, MA",Plymouth,Pembroke,42.06547,-70.8014
02360,MA,"Boston, MA",Plymouth,Plymouth,41.87817,-70.63089
02364,MA,"Boston, MA",Plymouth,Kingston,41.98616,-70.74823
02366,MA,"Boston, MA",Plymouth,South Carver,41.84868,-70.6613
02367,MA,"Boston, MA",Plymouth,Plympton,41.96345,-70.80975
02368,MA,"Boston, MA",Norfolk,Randolph,42.17506,-71.05011
02370,MA,"Boston, MA",Plymouth,Rockland,42.1295,-70.91002
02375,MA,"Providence, RI",Bristol,South Easton,42.01954,-71.10381
02379,MA,"Boston, MA",Plymouth,West Bridgewater,42.02139,-71.0267
02382,MA,"Boston, MA",Plymouth,Whitman,42.08,-70.93993
02420,MA,"Boston, MA",Middlesex,Lexington,42.45821,-71.21762
02421,MA,"Boston, MA",Middlesex,Lexington,42.438,-71.23922
02445,MA,"Boston, MA",Norfolk,Brookline,42.32581,-71.13319
02446,MA,"Boston, MA",Norfolk,Brookline,42.3435,-71.12179
02451,MA,"Boston, MA",Middlesex,Waltham,42.39859,-71.2573
02452,MA,"Boston, MA",Middlesex,Waltham,42.39365,-71.2202
02453,MA,"Boston, MA",Middlesex,Waltham,42.36918,-71.24101
02457,MA,"Boston, MA",Norfolk,Babson Park,42.29777,-71.26887
02458,MA,"Boston, MA",Middlesex,Newton,42.35294,-71.18763
02459,MA,"Boston, MA",Middlesex,Newton Center,42.31515,-71.19174
02460,MA,"Boston, MA",Middlesex,Newtonville,42.35206,-71.20835
02461,MA,"Boston, MA",Middlesex,Newton Highlands,42.31693,-71.20875
02462,MA,"Boston, MA",Middlesex,Newton Lower Falls,42.33102,-71.25599
02464,MA,"Boston, MA",Middlesex,Newton Upper Falls,42.31274,-71.21981
02465,MA,"Boston, MA",Middlesex,West Newton,42.34969,-71.22646
02466,MA,"Boston, MA",Middlesex,Auburndale,42.34541,-71.24759
02467,MA,"Boston, MA",Norfolk,Chestnut Hill,42.31725,-71.16096
02468,MA,"Boston, MA",Middlesex,Waban,42.32777,-71.23142
02472,MA,"Boston, MA",Middlesex,Watertown,42.37,-71.17713
02474,MA,"Boston, MA",Middlesex,Arlington,42.42053,-71.15666
02476,MA,"Boston, MA",Middlesex,Arlington,42.41597,-71.17437
02478,MA,"Boston, MA",Middlesex,Belmont,42.39602,-71.17955
02481,MA,"Boston, MA",Norfolk,Wellesley Hills,42.31064,-71.27779
02482,MA,"Boston, MA",Norfolk,Wellesley,42.29455,-71.29859
02492,MA,"Boston, MA",Norfolk,Needham,42.27615,-71.24387
02493,MA,"Boston, MA",Middlesex,Weston,42.35893,-71.30009
02494,MA,"Boston, MA",Norfolk,Needham Heights,42.29959,-71.2317
02532,MA,"Barnstable Town, MA",Barnstable,Buzzards Bay,41.75111,-70.59713
02534,MA,"Barnstable Town, MA",Barnstable,Cataumet,41.66626,-70.61628
02535,MA,,Dukes,Chilmark,41.34896,-70.74629
02536,MA,"Barnstable Town, MA",Barnstable,East Falmouth,41.59706,-70.56677
02537,MA,"Barnstable Town, MA",Barnstable,East Sandwich,41.72882,-70.44317
02538,MA,"Boston, MA",Plymouth,East Wareham,41.77872,-70.65077
02539,MA,,Dukes,Edgartown,41.37994,-70.53227
02540,MA,"Barnstable Town, MA",Barnstable,Falmouth,41.57128,-70.62807
02542,MA,"Barnstable Town, MA",Barnstable,Buzzards Bay,41.70194,-70.54824
02543,MA,"Barnstable Town, MA",Dukes,Woods Hole,41.48731,-70.74525
02553,MA,"Barnstable Town, MA",Barnstable,Monument Beach,41.71297,-70.62011
02554,MA,,Nantucket,Nantucket,41.28555,-70.08043
02556,MA,"Barnstable Town, MA",Barnstable,North Falmouth,41.63903,-70.62521
02557,MA,,Dukes,Oak Bluffs,41.44218,-70.56648
02558,MA,"Boston, MA",Plymouth,Onset,41.74453,-70.65377
02559,MA,"Barnstable Town, MA",Barnstable,Pocasset,41.69237,-70.61374
02561,MA,"Barnstable Town, MA",Barnstable,Sagamore,41.76782,-70.53281
02562,MA,"Barnstable Town, MA",Barnstable,Sagamore Beach,41.78753,-70.52746
02563,MA,"Barnstable Town, MA",Barnstable,Sandwich,41.71995,-70.4818
02564,MA,,Nantucket,Siasconset,41.26552,-69.98608
02568,MA,,Dukes,Vineyard Haven,41.44341,-70.61534
02571,MA,"Boston, MA",Plymouth,Wareham,41.76184,-70.70138
02575,MA,,Dukes,West Tisbury,41.39651,-70.65496
02576,MA,"Boston, MA",Plymouth,West Wareham,41.77807,-70.76338
02584,MA,,Nantucket,Nantucket,41.25753,-70.00522
02601,MA,"Barnstable Town, MA",Barnstable,Hyannis,41.66,-70.29327
02630,MA,"Barnstable Town, MA",Barnstable,Barnstable,41.69674,-70.3052
02631,MA,"Barnstable Town, MA",Barnstable,Brewster,41.74673,-70.06894
02632,MA,"Barnstable Town, MA",Barnstable,Centerville,41.66074,-70.34826
02633,MA,"Barnstable Town, MA",Barnstable,Chatham,41.68949,-69.97397
02635,MA,"Barnstable Town, MA",Barnstable,Cotuit,41.62348,-70.44051
02637,MA,"Barnstable Town, MA",Barnstable,Cummaquid,41.70493,-70.27245
02638,MA,"Barnstable Town, MA",Barnstable,Dennis,41.73225,-70.19459
02639,MA,"Barnstable Town, MA",Barnstable,Dennis Port,41.66639,-70.13535
02641,MA,"Barnstable Town, MA",Barnstable,East Dennis,41.75221,-70.15176
02642,MA,"Barnstable Town, MA",Barnstable,Eastham,41.83976,-69.97711
02643,MA,"Barnstable Town, MA",Barnstable,East Orleans,41.75534,-69.94002
02644,MA,"Barnstable Town, MA",Barnstable,Forestdale,41.68361,-70.51202
02645,MA,"Barnstable Town, MA",Barnstable,Harwich,41.70352,-70.06215
02646,MA,"Barnstable Town, MA",Barnstable,Harwich Port,41.67103,-70.07144
02647,MA,"Barnstable Town, MA",Barnstable,Hyannis Port,41.63127,-70.30909
02648,MA,"Barnstable Town, MA",Barnstable,Marstons Mills,41.67237,-70.41545
02649,MA,"Barnstable Town, MA",Barnstable,Mashpee,41.61778,-70.49077
02650,MA,"Barnstable Town, MA",Barnstable,North Chatham,41.7036,-69.96589
02652,MA,"Barnstable Town, MA",Barnstable,North Truro,42.0428,-70.09276
02653,MA,"Barnstable Town, MA",Barnstable,Orleans,41.76901,-69.9737
02655,MA,"Barnstable Town, MA",Barnstable,Osterville,41.62972,-70.39263
02657,MA,"Barnstable Town, MA",Barnstable,Provincetown,42.06139,-70.19813
02659,MA,"Barnstable Town, MA",Barnstable,South Chatham,41.68258,-70.02234
02660,MA,"Barnstable Town, MA",Barnstable,South Dennis,41.70828,-70.15517
02663,MA,"Barnstable Town, MA",Barnstable,South Wellfleet,41.90576,-69.989
02664,MA,"Barnstable Town, MA",Barnstable,South Yarmouth,41.67486,-70.19446
02666,MA,"Barnstable Town, MA",Barnstable,Truro,41.98817,-70.04603
02667,MA,"Barnstable Town, MA",Barnstable,Wellfleet,41.92937,-70.02074
02668,MA,"Barnstable Town, MA",Barnstable,West Barnstable,41.70713,-70.36246
02670,MA,"Barnstable Town, MA",Barnstable,West Dennis,41.66,-70.17098
02671,MA,"Barnstable Town, MA",Barnstable,West Harwich,41.66938,-70.11087
02672,MA,"Barnstable Town, MA",Barnstable,West Hyannisport,41.6357,-70.31878
02673,MA,"Barnstable Town, MA",Barnstable,West Yarmouth,41.6557,-70.24447
02675,MA,"Barnstable Town, MA",Barnstable,Yarmouth Port,41.70401,-70.22883
02702,MA,"Providence, RI",Bristol,Assonet,41.78452,-71.06112
02703,MA,"Providence, RI",Bristol,Attleboro,41.93108,-71.29499
02713,MA,,Dukes,Cuttyhunk,41.42818,-70.89102
02715,MA,"Providence, RI",Bristol,Dighton,41.81681,-71.15064
02717,MA,"Providence, RI",Bristol,East Freetown,41.75405,-70.98312
02718,MA,"Providence, RI",Bristol,East Taunton,41.86902,-71.01128
02719,MA,"Providence, RI",Bristol,Fairhaven,41.63945,-70.87322
02720,MA,"Providence, RI",Bristol,Fall River,41.73095,-71.10932
02721,MA,"Providence, RI",Bristol,Fall River,41.67451,-71.14869
02723,MA,"Providence, RI",Bristol,Fall River,41.69237,-71.1309
02724,MA,"Providence, RI",Bristol,Fall River,41.68372,-71.17949
02725,MA,"Providence, RI",Bristol,Somerset,41.71253,-71.18426
02726,MA,"Providence, RI",Bristol,Somerset,41.76073,-71.14444
02738,MA,"Boston, MA",Plymouth,Marion,41.7092,-70.76362
02739,MA,"Boston, MA",Plymouth,Mattapoisett,41.6687,-70.81705
02740,MA,"Providence, RI",Bristol,New Bedford,41.63802,-70.93839
02743,MA,"Providence, RI",Bristol,Acushnet,41.71323,-70.90054
02744,MA,"Providence, RI",Bristol,New Bedford,41.60789,-70.91286
02745,MA,"Providence, RI",Bristol,New Bedford,41.70284,-70.94695
02746,MA,"Providence, RI",Bristol,New Bedford,41.66474,-70.945
02747,MA,"Providence, RI",Bristol,North Dartmouth,41.6577,-71.01202
02748,MA,"Providence, RI",Bristol,South Dartmouth,41.56096,-70.97963
02760,MA,"Providence, RI",Bristol,North Attleboro,41.97004,-71.33586
02762,MA,"Boston, MA",Norfolk,Plainville,42.01409,-71.33642
02763,MA,"Providence, RI",Bristol,Attleboro Falls,41.96666,-71.30743
02764,MA,"Providence, RI",Bristol,North Dighton,41.8562,-71.16022
02766,MA,"Providence, RI",Bristol,Norton,41.96402,-71.18418
02767,MA,"Providence, RI",Bristol,Raynham,41.93939,-71.05191
02769,MA,"Providence, RI",Bristol,Rehoboth,41.84394,-71.24559
02770,MA,"Boston, MA",Plymouth,Rochester,41.75875,-70.84048
02771,MA,"Providence, RI",Bristol,Seekonk,41.83787,-71.31736
02777,MA,"Providence, RI",Bristol,Swansea,41.75699,-71.21208
02779,MA,"Providence, RI",Bristol,Berkley,41.83492,-71.07543
02780,MA,"Providence, RI",Bristol,Taunton,41.90743,-71.11939
02790,MA,"Providence, RI",Bristol,Westport,41.59967,-71.08266
02791,MA,"Providence, RI",Bristol,Westport Point,41.52262,-71.08266
02802,RI,"Providence, RI",Providence,Albion,41.95221,-71.4559
02804,RI,"Providence, RI",Washington,Ashaway,41.43546,-71.77196
02806,RI,"Providence, RI",Bristol,Barrington,41.7443,-71.31453
02807,RI,"Providence, RI",Washington,Block Island,41.17762,-71.57854
02808,RI,"Providence, RI",Washington,Bradford,41.40606,-71.74802
02809,RI,"Providence, RI",Bristol,Bristol,41.68266,-71.26938
02812,RI,"Providence, RI",Washington,Carolina,41.47625,-71.66094
02813,RI,"Providence, RI",Washington,Charlestown,41.3971,-71.67003
02814,RI,"Providence, RI",Providence,Chepachet,41.89959,-71.69888
02815,RI,"Providence, RI",Providence,Clayville,41.77723,-71.66177
02816,RI,"Providence, RI",Kent,Coventry,41.69035,-71.61954
02817,RI,"Providence, RI",Kent,West Greenwich,41.6291,-71.66711
02818,RI,"Providence, RI",Kent,East Greenwich,41.64214,-71.49307
02822,RI,"Providence, RI",Washington,Exeter,41.56736,-71.63348
02823,RI,,Providence,Fiskeville,41.73328,-71.54479
02824,RI,,Providence,Forestdale,41.99934,-71.56322
02825,RI,"Providence, RI",Providence,Foster,41.78212,-71.72596
02826,RI,"Providence, RI",Providence,Glendale,41.98248,-71.64539
02827,RI,"Providence, RI",Kent,Greene,41.69792,-71.73847
02828,RI,"Providence, RI",Providence,Greenville,41.87672,-71.56065
02829,RI,,Providence,Harmony,41.89377,-71.59129
02830,RI,"Providence, RI",Providence,Harrisville,41.98016,-71.6484
02831,RI,"Providence, RI",Providence,Hope,41.74461,-71.58442
02832,RI,"Providence, RI",Washington,Hope Valley,41.50469,-71.72807
02833,RI,"Providence, RI",Washington,Hopkinton,41.48117,-71.77787
02835,RI,"Providence, RI",Newport,Jamestown,41.51479,-71.37742
02836,RI,"Providence, RI",Washington,Kenyon,41.45145,-71.62027
02837,RI,"Providence, RI",Newport,Little Compton,41.51524,-71.16455
02838,RI,"Providence, RI",Providence,Manville,41.96552,-71.47628
02839,RI,"Providence, RI",Providence,Mapleville,41.9433,-71.64581
02840,RI,"Providence, RI",Newport,Newport,41.47838,-71.31993
02841,RI,"Providence, RI",Newport,Newport,41.51261,-71.32522
02842,RI,"Providence, RI",Newport,Middletown,41.51739,-71.27667
02852,RI,"Providence, RI",Washington,North Kingstown,41.58809,-71.46094
02857,RI,"Providence, RI",Providence,North Scituate,41.82705,-71.63083
02858,RI,"Providence, RI",Providence,Oakland,41.96354,-71.64893
02859,RI,"Providence, RI",Providence,Pascoag,41.9665,-71.7464
02860,RI,"Providence, RI",Providence,Pawtucket,41.87036,-71.38855
02861,RI,"Providence, RI",Providence,Pawtucket,41.87863,-71.35228
02863,RI,"Providence, RI",Providence,Central Falls,41.89005,-71.39336
02864,RI,"Providence, RI",Providence,Cumberland,41.97025,-71.41978
02865,RI,"Providence, RI",Providence,Lincoln,41.91251,-71.44822
02871,RI,"Providence, RI",Newport,Portsmouth,41.58384,-71.2564
02872,RI,"Providence, RI",Newport,Prudence Island,41.61718,-71.32886
02873,RI,"Providence, RI",Washington,Rockville,41.5257,-71.77734
02874,RI,"Providence, RI",Washington,Saunderstown,41.51543,-71.46985
02875,RI,"Providence, RI",Washington,Shannock,41.46052,-71.63848
02876,RI,"Providence, RI",Providence,Slatersville,41.99801,-71.58301
02878,RI,"Providence, RI",Newport,Tiverton,41.60905,-71.17413
02879,RI,"Providence, RI",Washington,Wakefield,41.42865,-71.53837
02881,RI,"Providence, RI",Washington,Kingston,41.4825,-71.52694
02882,RI,"Providence, RI",Washington,Narragansett,41.4253,-71.46816
02885,RI,"Providence, RI",Bristol,Warren,41.72821,-71.26287
02886,RI,"Providence, RI",Kent,Warwick,41.70493,-71.45892
02888,RI,"Providence, RI",Kent,Warwick,41.74909,-71.41123
02889,RI,"Providence, RI",Kent,Warwick,41.70602,-71.39106
02891,RI,"Providence, RI",Washington,Westerly,41.36043,-71.79429
02892,RI,"Providence, RI",Washington,West Kingston,41.50226,-71.60174
02893,RI,"Providence, RI",Kent,West Warwick,41.69856,-71.51566
02894,RI,"Providence, RI",Washington,Wood River Junction,41.44761,-71.69759
02895,RI,"Providence, RI",Providence,Woonsocket,42.00103,-71.49923
02896,RI,"Providence, RI",Providence,North Smithfield,41.97285,-71.55027
02898,RI,"Providence, RI",Washington,Wyoming,41.52184,-71.67166
02903,RI,"Providence, RI",Providence,Providence,41.81902,-71.41003
02904,RI,"Providence, RI",Providence,Providence,41.86058,-71.43539
02905,RI,"Providence, RI",Providence,Providence,41.78769,-71.39886
02906,RI,"Providence, RI",Providence,Providence,41.83964,-71.38963
02907,RI,"Providence, RI",Providence,Providence,41.79867,-71.42581
02908,RI,"Providence, RI",Providence,Providence,41.83877,-71.43926
02909,RI,"Providence, RI",Providence,Providence,41.81825,-71.45078
02910,RI,"Providence, RI",Providence,Cranston,41.77552,-71.43564
02911,RI,"Providence, RI",Providence,North Providence,41.85467,-71.47325
02912,RI,"Providence, RI",Providence,Providence,41.82783,-71.39959
02914,RI,"Providence, RI",Providence,East Providence,41.81326,-71.36608
02915,RI,"Providence, RI",Providence,Riverside,41.77725,-71.34906
02916,RI,"Providence, RI",Providence,Rumford,41.84438,-71.35258
02917,RI,"Providence, RI",Providence,Smithfield,41.90615,-71.52365
02918,RI,,Providence,Providence,41.84386,-71.43499
02919,RI,"Providence, RI",Providence,Johnston,41.82733,-71.52002
02920,RI,"Providence, RI",Providence,Cranston,41.76719,-71.4655
02921,RI,"Providence, RI",Providence,Cranston,41.76292,-71.51571
03031,NH,"Manchester, NH",Hillsborough,Amherst,42.87056,-71.60683
03032,NH,"Boston, MA",Rockingham,Auburn,42.99063,-71.34383
03033,NH,"Manchester, NH",Hillsborough,Brookline,42.74643,-71.67054
03034,NH,"Boston, MA",Rockingham,Candia,43.06269,-71.31106
03036,NH,"Boston, MA",Rockingham,Chester,42.96719,-71.25083
03037,NH,"Boston, MA",Rockingham,Deerfield,43.1395,-71.2535
03038,NH,"Boston, MA",Rockingham,Derry,42.88867,-71.27932
03042,NH,"Boston, MA",Rockingham,Epping,43.05009,-71.07467
03043,NH,"Manchester, NH",Hillsborough,Francestown,42.99581,-71.81514
03044,NH,"Boston, MA",Rockingham,Fremont,42.98899,-71.12494
03045,NH,"Manchester, NH",Hillsborough,Goffstown,43.01994,-71.57035
03046,NH,"Concord, NH",Merrimack,Dunbarton,43.10178,-71.60548
03047,NH,"Manchester, NH",Hillsborough,Greenfield,42.94029,-71.87053
03048,NH,"Manchester, NH",Hillsborough,Greenville,42.74668,-71.76268
03049,NH,"Manchester, NH",Hillsborough,Hollis,42.7494,-71.58338
03051,NH,"Manchester, NH",Hillsborough,Hudson,42.76394,-71.40716
03052,NH,"Manchester, NH",Hillsborough,Litchfield,42.84302,-71.455
03053,NH,"Boston, MA",Rockingham,Londonderry,42.87927,-71.38702
03054,NH,"Manchester, NH",Hillsborough,Merrimack,42.85471,-71.51878
03055,NH,"Manchester, NH",Hillsborough,Milford,42.81783,-71.67361
03057,NH,"Manchester, NH",Hillsborough,Mont Vernon,42.90265,-71.6861
03060,NH,"Manchester, NH",Hillsborough,Nashua,42.74135,-71.45936
03062,NH,"Manchester, NH",Hillsborough,Nashua,42.72212,-71.49556
03063,NH,"Manchester, NH",Hillsborough,Nashua,42.7795,-71.51939
03064,NH,"Manchester, NH",Hillsborough,Nashua,42.77886,-71.47466
03070,NH,"Manchester, NH",Hillsborough,New Boston,42.97702,-71.68664
03071,NH,"Manchester, NH",Hillsborough,New Ipswich,42.74892,-71.8747
03076,NH,"Manchester, NH",Hillsborough,Pelham,42.73354,-71.324
03077,NH,"Boston, MA",Rockingham,Raymond,43.03219,-71.19945
03079,NH,"Boston, MA",Rockingham,Salem,42.79023,-71.22024
03082,NH,"Manchester, NH",Hillsborough,Lyndeborough,42.90197,-71.77545
03084,NH,"Manchester, NH",Hillsborough,Temple,42.82856,-71.85495
03086,NH,"Manchester, NH",Hillsborough,Wilton,42.82741,-71.76967
03087,NH,"Boston, MA",Rockingham,Windham,42.80758,-71.29945
03101,NH,"Manchester, NH",Hillsborough,Manchester,42.98881,-71.4659
03102,NH,"Manchester, NH",Hillsborough,Manchester,43.00797,-71.49134
03103,NH,"Manchester, NH",Hillsborough,Manchester,42.95536,-71.44463
03104,NH,"Manchester, NH",Hillsborough,Manchester,43.00926,-71.4411
03106,NH,"Concord, NH",Merrimack,Hooksett,43.07097,-71.43651
03109,NH,"Manchester, NH",Hillsborough,Manchester,42.96594,-71.40167
03110,NH,"Manchester, NH",Hillsborough,Bedford,42.94065,-71.53023
03215,NH,,Grafton,Waterville Valley,44.03605,-71.48109
03216,NH,"Concord, NH",Merrimack,Andover,43.44656,-71.79374
03217,NH,,Grafton,Ashland,43.71492,-71.63033
03218,NH,"Laconia, NH",Belknap,Barnstead,43.33465,-71.28803
03220,NH,"Laconia, NH",Belknap,Belmont,43.46793,-71.4758
03221,NH,"Concord, NH",Merrimack,Bradford,43.25482,-71.96122
03222,NH,,Grafton,Bristol,43.62895,-71.78234
03223,NH,,Grafton,Campton,43.84784,-71.67597
03224,NH,"Concord, NH",Merrimack,Canterbury,43.35171,-71.54691
03225,NH,"Laconia, NH",Belknap,Center Barnstead,43.36001,-71.23828
03226,NH,"Laconia, NH",Belknap,Center Harbor,43.70259,-71.51086
03227,NH,,Carroll,Center Sandwich,43.81419,-71.45712
03229,NH,"Concord, NH",Merrimack,Contoocook,43.19792,-71.69677
03230,NH,"Concord, NH",Merrimack,Danbury,43.52685,-71.8622
03231,NH,"Concord, NH",Merrimack,East Andover,43.45555,-71.75551
03233,NH,"Concord, NH",Merrimack,Elkins,43.42325,-71.93322
03234,NH,"Concord, NH",Merrimack,Epsom,43.21484,-71.33914
03235,NH,"Concord, NH",Merrimack,Franklin,43.44831,-71.67208
03237,NH,"Laconia, NH",Belknap,Gilmanton,43.42997,-71.38233
03238,NH,,Grafton,Glencliff,43.98168,-71.88701
03240,NH,,Grafton,Grafton,43.57599,-71.97221
03241,NH,,Grafton,Hebron,43.71149,-71.81915
03242,NH,"Concord, NH",Merrimack,Henniker,43.17365,-71.8224
03243,NH,"Concord, NH",Merrimack,Hill,43.5276,-71.7644
03244,NH,"Manchester, NH",Hillsborough,Hillsborough,43.11822,-71.9192
03245,NH,,Grafton,Holderness,43.75026,-71.58852
03246,NH,"Laconia, NH",Belknap,Laconia,43.57239,-71.4775
03249,NH,"Laconia, NH",Belknap,Gilford,43.55806,-71.38505
03251,NH,,Grafton,Lincoln,44.0796,-71.65276
03253,NH,"Laconia, NH",Belknap,Meredith,43.63193,-71.49749
03254,NH,"Laconia, NH",Carroll,Moultonborough,43.72505,-71.37782
03255,NH,"Concord, NH",Merrimack,Newbury,43.3149,-72.02795
03256,NH,"Laconia, NH",Belknap,New Hampton,43.62425,-71.63514
03257,NH,"Concord, NH",Merrimack,New London,43.41768,-71.99101
03258,NH,"Concord, NH",Merrimack,Chichester,43.25744,-71.39956
03259,NH,,Carroll,North Sandwich,43.87921,-71.44527
03260,NH,"Concord, NH",Merrimack,North Sutton,43.36016,-71.92457
03261,NH,"Boston, MA",Rockingham,Northwood,43.21322,-71.20966
03262,NH,,Grafton,North Woodstock,43.99885,-71.73813
03263,NH,"Concord, NH",Merrimack,Pittsfield,43.29483,-71.31133
03264,NH,,Grafton,Plymouth,43.72967,-71.71159
03266,NH,,Grafton,Rumney,43.79407,-71.89035
03268,NH,"Concord, NH",Merrimack,Salisbury,43.38505,-71.7574
03269,NH,"Laconia, NH",Belknap,Sanbornton,43.53,-71.60219
03273,NH,"Concord, NH",Merrimack,South Sutton,43.30337,-71.92413
03275,NH,"Concord, NH",Merrimack,Suncook,43.15999,-71.41794
03276,NH,"Concord, NH",Merrimack,Tilton,43.42783,-71.57514
03278,NH,"Concord, NH",Merrimack,Warner,43.29313,-71.82934
03279,NH,,Grafton,Warren,43.94468,-71.88231
03280,NH,,Sullivan,Washington,43.18339,-72.08979
03281,NH,"Manchester, NH",Hillsborough,Weare,43.08126,-71.72189
03282,NH,,Grafton,Wentworth,43.86006,-71.9295
03284,NH,,Sullivan,Springfield,43.49361,-72.03057
03285,NH,,Grafton,Thornton,43.92408,-71.64359
03287,NH,"Concord, NH",Merrimack,Wilmot,43.45168,-71.91795
03290,NH,"Boston, MA",Rockingham,Nottingham,43.12391,-71.12089
03291,NH,"Boston, MA",Rockingham,West Nottingham,43.17976,-71.14205
03293,NH,,Grafton,Woodstock,43.97696,-71.67721
03301,NH,"Concord, NH",Merrimack,Concord,43.22423,-71.54342
03303,NH,"Concord, NH",Merrimack,Concord,43.29819,-71.67186
03304,NH,"Concord, NH",Merrimack,Bow,43.13078,-71.53066
03307,NH,"Concord, NH",Merrimack,Loudon,43.32257,-71.44265
03431,NH,"Keene, NH",Cheshire,Keene,42.96785,-72.29862
03440,NH,"Manchester, NH",Hillsborough,Antrim,43.06023,-71.97446
03441,NH,"Keene, NH",Cheshire,Ashuelot,42.77737,-72.44263
03442,NH,"Manchester, NH",Hillsborough,Bennington,43.01268,-71.90781
03443,NH,"Keene, NH",Cheshire,Chesterfield,42.8767,-72.46148
03444,NH,"Keene, NH",Cheshire,Dublin,42.89403,-72.07178
03445,NH,"Keene, NH",Cheshire,Sullivan,43.01555,-72.2137
03446,NH,"Keene, NH",Cheshire,Swanzey,42.86163,-72.29639
03447,NH,"Keene, NH",Cheshire,Fitzwilliam,42.7592,-72.14794
03448,NH,"Keene, NH",Cheshire,Gilsum,43.03996,-72.26448
03449,NH,"Manchester, NH",Hillsborough,Hancock,42.98222,-72.00037
03450,NH,"Keene, NH",Cheshire,Harrisville,42.94157,-72.09107
03451,NH,"Keene, NH",Cheshire,Hinsdale,42.80907,-72.50029
03452,NH,"Keene, NH",Cheshire,Jaffrey,42.82922,-72.05962
03455,NH,"Keene, NH",Cheshire,Marlborough,42.89816,-72.18308
03456,NH,"Keene, NH",Cheshire,Marlow,43.13092,-72.21505
03457,NH,"Keene, NH",Cheshire,Nelson,43.00282,-72.12933
03458,NH,"Manchester, NH",Hillsborough,Peterborough,42.86906,-71.93797
03461,NH,"Keene, NH",Cheshire,Rindge,42.75234,-72.01071
03462,NH,"Keene, NH",Cheshire,Spofford,42.8949,-72.40507
03464,NH,"Keene, NH",Cheshire,Stoddard,43.08256,-72.11085
03465,NH,"Keene, NH",Cheshire,Troy,42.82677,-72.18988
03466,NH,"Keene, NH",Cheshire,West Chesterfield,42.89525,-72.50964
03467,NH,"Keene, NH",Cheshire,Westmoreland,42.96894,-72.43203
03470,NH,"Keene, NH",Cheshire,Winchester,42.77869,-72.34413
03561,NH,,Grafton,Littleton,44.33222,-71.80973
03570,NH,,Coos,Berlin,44.49953,-71.20396
03574,NH,,Grafton,Bethlehem,44.25386,-71.59924
03575,NH,,Coos,Bretton Woods,44.28946,-71.41722
03576,NH,,Coos,Colebrook,44.89839,-71.37178
03579,NH,,Oxford,Errol,44.95234,-71.04182
03580,NH,,Grafton,Franconia,44.17347,-71.69519
03581,NH,,Coos,Gorham,44.34227,-71.13413
03582,NH,,Coos,Groveton,44.59777,-71.43703
03583,NH,,Coos,Jefferson,44.40148,-71.4583
03584,NH,,Coos,Lancaster,44.48696,-71.54278
03585,NH,,Grafton,Lisbon,44.22538,-71.89703
03586,NH,,Grafton,Sugar Hill,44.22058,-71.7963
03588,NH,,Coos,Milan,44.60545,-71.23204
03590,NH,,Coos,North Stratford,44.74195,-71.51485
03592,NH,,Coos,Pittsburg,45.1128,-71.25493
03593,NH,,Coos,Randolph,44.29816,-71.31774
03595,NH,,Coos,Twin Mountain,44.30616,-71.527
03597,NH,,Coos,West Stewartstown,44.73439,-71.38243
03598,NH,,Coos,Whitefield,44.37998,-71.63179
03601,NH,,Sullivan,Acworth,43.23933,-72.29855
03602,NH,"Keene, NH",Cheshire,Alstead,43.13751,-72.32938
03603,NH,,Sullivan,Charlestown,43.25339,-72.38059
03604,NH,"Keene, NH",Cheshire,Drewsville,43.13232,-72.38984
03605,NH,,Sullivan,Lempster,43.22815,-72.18032
03607,NH,,Sullivan,South Acworth,43.19698,-72.26084
03608,NH,"Keene, NH",Cheshire,Walpole,43.07128,-72.40604
03609,NH,"Keene, NH",Cheshire,North Walpole,43.1441,-72.44512
03740,NH,,Grafton,Bath,44.18025,-71.98626
03741,NH,,Grafton,Canaan,43.67134,-72.01559
03743,NH,,Sullivan,Claremont,43.36026,-72.32489
03745,NH,,Sullivan,Cornish,43.47407,-72.32001
03748,NH,,Grafton,Enfield,43.60207,-72.11713
03750,NH,,Grafton,Etna,43.70681,-72.19308
03751,NH,,Sullivan,Georges Mills,43.44363,-72.08394
03752,NH,,Sullivan,Goshen,43.28909,-72.11489
03753,NH,,Sullivan,Grantham,43.51534,-72.14798
03755,NH,,Grafton,Hanover,43.72377,-72.19563
03765,NH,,Grafton,Haverhill,44.03452,-72.05231
03766,NH,,Grafton,Lebanon,43.63491,-72.23819
03768,NH,,Grafton,Lyme,43.80529,-72.11573
03770,NH,,Sullivan,Meriden,43.5336,-72.26469
03771,NH,,Grafton,Monroe,44.28443,-72.0098
03773,NH,,Sullivan,Newport,43.38484,-72.19898
03774,NH,,Grafton,North Haverhill,44.09097,-71.9947
03777,NH,,Grafton,Orford,43.89548,-72.06672
03779,NH,,Grafton,Piermont,43.97477,-72.03089
03780,NH,,Grafton,Pike,44.03169,-71.97142
03781,NH,,Sullivan,Plainfield,43.5526,-72.28399
03782,NH,,Sullivan,Sunapee,43.38962,-72.09149
03784,NH,,Grafton,West Lebanon,43.63675,-72.30608
03785,NH,,Grafton,Woodsville,44.06525,-71.87017
03801,NH,"Boston, MA",Rockingham,Portsmouth,43.07293,-70.8052
03809,NH,"Laconia, NH",Belknap,Alton,43.45321,-71.21184
03810,NH,"Laconia, NH",Belknap,Alton Bay,43.52692,-71.27941
03811,NH,"Boston, MA",Rockingham,Atkinson,42.83693,-71.16042
03812,NH,,Carroll,Bartlett,44.08148,-71.29643
03813,NH,,Carroll,Center Conway,44.09408,-71.04573
03814,NH,,Carroll,Center Ossipee,43.77341,-71.18717
03816,NH,,Carroll,Center Tuftonboro,43.69753,-71.24218
03817,NH,,Carroll,Chocorua,43.8885,-71.23358
03818,NH,,Carroll,Conway,43.97302,-71.25261
03819,NH,"Boston, MA",Rockingham,Danville,42.93012,-71.12197
03820,NH,"Boston, MA",Strafford,Dover,43.18933,-70.88428
03823,NH,"Boston, MA",Strafford,Madbury,43.17488,-70.94089
03824,NH,"Boston, MA",Strafford,Durham,43.11744,-70.91937
03825,NH,"Boston, MA",Strafford,Barrington,43.21366,-71.04227
03826,NH,"Boston, MA",Rockingham,East Hampstead,42.88878,-71.12881
03827,NH,"Boston, MA",Rockingham,East Kingston,42.90691,-70.98774
03830,NH,,Carroll,East Wakefield,43.63549,-70.99568
03832,NH,,Carroll,Eaton Center,43.90249,-71.04859
03833,NH,"Boston, MA",Rockingham,Exeter,42.97464,-70.98885
03835,NH,"Boston, MA",Strafford,Farmington,43.36319,-71.07605
03836,NH,,Carroll,Freedom,43.82608,-71.07118
03837,NH,"Laconia, NH",Belknap,Gilmanton Iron Works,43.42271,-71.32766
03838,NH,,Carroll,Glen,44.11257,-71.24036
03839,NH,"Boston, MA",Strafford,Rochester,43.26256,-70.98254
03840,NH,"Boston, MA",Rockingham,Greenland,43.03853,-70.84803
03841,NH,"Boston, MA",Rockingham,Hampstead,42.88148,-71.17856
03842,NH,"Boston, MA",Rockingham,Hampton,42.93941,-70.83697
03844,NH,"Boston, MA",Rockingham,Hampton Falls,42.92693,-70.88603
03845,NH,,Carroll,Intervale,44.10317,-71.1271
03846,NH,,Carroll,Jackson,44.18445,-71.18899
03847,NH,,Carroll,Kearsarge,44.06875,-71.12162
03848,NH,"Boston, MA",Rockingham,Kingston,42.91562,-71.06647
03849,NH,,Carroll,Madison,43.89454,-71.13101
03850,NH,,Carroll,Melvin Village,43.69739,-71.29983
03851,NH,"Boston, MA",Strafford,Milton,43.43606,-71.01633
03852,NH,"Boston, MA",Strafford,Milton Mills,43.4982,-70.97547
03853,NH,,Carroll,Mirror Lake,43.63818,-71.29371
03854,NH,"Boston, MA",Rockingham,New Castle,43.06558,-70.72003
03855,NH,"Boston, MA",Strafford,New Durham,43.46343,-71.14172
03856,NH,"Boston, MA",Rockingham,Newfields,43.03916,-70.96627
03857,NH,"Boston, MA",Rockingham,Newmarket,43.0691,-70.95164
03858,NH,"Boston, MA",Rockingham,Newton,42.86839,-71.04357
03860,NH,,Carroll,North Conway,44.0427,-71.12422
03861,NH,"Boston, MA",Strafford,Lee,43.11931,-71.0068
03862,NH,"Boston, MA",Rockingham,North Hampton,42.97914,-70.83025
03864,NH,,Carroll,Ossipee,43.69044,-71.10631
03865,NH,"Boston, MA",Rockingham,Plaistow,42.84032,-71.09603
03867,NH,"Boston, MA",Strafford,Rochester,43.3031,-70.98891
03868,NH,"Boston, MA",Strafford,Rochester,43.31879,-70.9415
03869,NH,"Boston, MA",Strafford,Rollinsford,43.22092,-70.83995
03870,NH,"Boston, MA",Rockingham,Rye,43.0157,-70.76052
03871,NH,"Boston, MA",Rockingham,Rye Beach,42.9807,-70.77358
03872,NH,,Carroll,Sanbornville,43.57225,-71.04249
03873,NH,"Boston, MA",Rockingham,Sandown,42.93321,-71.1833
03874,NH,"Boston, MA",Rockingham,Seabrook,42.88689,-70.8607
03875,NH,,Carroll,Silver Lake,43.89944,-71.18636
03878,NH,"Boston, MA",Strafford,Somersworth,43.25335,-70.88555
03882,NH,,Carroll,Effingham,43.74727,-71.04254
03883,NH,,Carroll,South Tamworth,43.81252,-71.30789
03884,NH,"Boston, MA",Strafford,Strafford,43.28018,-71.14885
03885,NH,"Boston, MA",Rockingham,Stratham,43.01579,-70.90051
03886,NH,,Carroll,Tamworth,43.86399,-71.28783
03887,NH,"Boston, MA",Strafford,Union,43.48485,-71.0662
03890,NH,,Carroll,West Ossipee,43.81528,-71.20581
03894,NH,,Carroll,Wolfeboro,43.61109,-71.17788
03897,NH,,Carroll,Wonalancet,43.90841,-71.32453
03901,ME,"Portland, ME",York,Berwick,43.30063,-70.84397
03902,ME,"Portland, ME",York,Cape Neddick,43.22246,-70.63788
03903,ME,"Portland, ME",York,Eliot,43.14885,-70.786
03904,ME,"Portland, ME",York,Kittery,43.11025,-70.73201
03905,ME,"Portland, ME",York,Kittery Point,43.08481,-70.68449
03906,ME,"Portland, ME",York,North Berwick,43.3447,-70.77759
03907,ME,"Portland, ME",York,Ogunquit,43.25474,-70.611
03908,ME,"Portland, ME",York,South Berwick,43.23838,-70.74795
03909,ME,"Portland, ME",York,York,43.16786,-70.68105
03910,ME,"Portland, ME",York,York Beach,43.17374,-70.60842
03911,ME,"Portland, ME",York,York Harbor,43.13424,-70.63695
04001,ME,"Portland, ME",York,Acton,43.52991,-70.92078
04002,ME,"Portland, ME",York,Alfred,43.49572,-70.67922
04003,ME,"Portland, ME",Cumberland,Bailey Island,43.73362,-69.98724
04005,ME,"Portland, ME",York,Biddeford,43.49591,-70.49537
04006,ME,"Portland, ME",York,Biddeford Pool,43.44397,-70.34272
04008,ME,"Portland, ME",Sagadahoc,Bowdoinham,44.03664,-69.86337
04009,ME,"Portland, ME",Cumberland,Bridgton,44.04791,-70.73632
04010,ME,,Oxford,Brownfield,43.93341,-70.91718
04011,ME,"Portland, ME",Cumberland,Brunswick,43.90068,-69.97607
04015,ME,"Portland, ME",Cumberland,Casco,43.96503,-70.5205
04017,ME,"Portland, ME",Cumberland,Chebeague Island,43.72974,-70.11317
04019,ME,"Portland, ME",Cumberland,Cliff Island,43.69149,-70.0999
04020,ME,"Portland, ME",York,Cornish,43.76811,-70.81028
04021,ME,"Portland, ME",Cumberland,Cumberland Center,43.79756,-70.26519
04022,ME,,Oxford,Denmark,43.98055,-70.80718
04024,ME,"Portland, ME",Cumberland,East Baldwin,43.83556,-70.67701
04027,ME,"Portland, ME",York,Lebanon,43.40333,-70.91155
04029,ME,"Portland, ME",Cumberland,Sebago,43.89479,-70.66007
04030,ME,"Portland, ME",York,East Waterboro,43.59301,-70.69553
04032,ME,"Portland, ME",Cumberland,Freeport,43.85561,-70.10085
04037,ME,,Oxford,Fryeburg,44.09129,-70.94942
04038,ME,"Portland, ME",Cumberland,Gorham,43.70343,-70.4581
04039,ME,"Portland, ME",Cumberland,Gray,43.88744,-70.34532
04040,ME,"Portland, ME",Cumberland,Harrison,44.10922,-70.71784
04041,ME,,Oxford,Hiram,43.86416,-70.82631
04042,ME,"Portland, ME",York,Hollis Center,43.62953,-70.62453
04043,ME,"Portland, ME",York,Kennebunk,43.39721,-70.57071
04046,ME,"Portland, ME",York,Kennebunkport,43.42027,-70.4921
04047,ME,"Portland, ME",York,Parsonsfield,43.73552,-70.91152
04048,ME,"Portland, ME",York,Limerick,43.68862,-70.78642
04049,ME,"Portland, ME",York,Limington,43.7356,-70.70263
04050,ME,"Portland, ME",Cumberland,Long Island,43.69148,-70.15714
04051,ME,,Oxford,Lovell,44.18945,-70.88477
04055,ME,"Portland, ME",Cumberland,Naples,43.97065,-70.61444
04056,ME,"Portland, ME",York,Newfield,43.66066,-70.85875
04057,ME,"Portland, ME",Cumberland,North Bridgton,44.09563,-70.70177
04061,ME,"Portland, ME",York,North Waterboro,43.63409,-70.74312
04062,ME,"Portland, ME",Cumberland,Windham,43.79798,-70.40547
04063,ME,"Portland, ME",York,Ocean Park,43.50145,-70.39551
04064,ME,"Portland, ME",York,Old Orchard Beach,43.52635,-70.38985
04066,ME,"Portland, ME",Cumberland,Orrs Island,43.77332,-69.96808
04068,ME,,Oxford,Porter,43.84009,-70.9409
04069,ME,"Portland, ME",Cumberland,Pownal,43.89918,-70.18191
04071,ME,"Portland, ME",Cumberland,Raymond,43.89598,-70.48133
04072,ME,"Portland, ME",York,Saco,43.53898,-70.46236
04073,ME,"Portland, ME",York,Sanford,43.41301,-70.74237
04074,ME,"Portland, ME",Cumberland,Scarborough,43.59103,-70.3683
04076,ME,"Portland, ME",York,Shapleigh,43.55248,-70.83793
04079,ME,"Portland, ME",Cumberland,Harpswell,43.80343,-69.94972
04083,ME,"Portland, ME",York,Springvale,43.46728,-70.81359
04084,ME,"Portland, ME",Cumberland,Standish,43.76637,-70.55893
04085,ME,"Portland, ME",Cumberland,Steep Falls,43.7809,-70.62553
04086,ME,"Portland, ME",Sagadahoc,Topsham,43.96145,-69.95872
04087,ME,"Portland, ME",York,Waterboro,43.56234,-70.74529
04088,ME,,Oxford,Waterford,44.19352,-70.71906
04090,ME,"Portland, ME",York,Wells,43.32669,-70.63356
04091,ME,"Portland, ME",Cumberland,West Baldwin,43.83035,-70.74858
04092,ME,"Portland, ME",Cumberland,Westbrook,43.69542,-70.35389
04093,ME,"Portland, ME",York,Buxton,43.64282,-70.53765
04095,ME,"Portland, ME",York,West Newfield,43.63925,-70.90749
04096,ME,"Portland, ME",Cumberland,Yarmouth,43.7978,-70.1719
04097,ME,"Portland, ME",Cumberland,North Yarmouth,43.85123,-70.23636
04101,ME,"Portland, ME",Cumberland,Portland,43.6624,-70.2586
04102,ME,"Portland, ME",Cumberland,Portland,43.65877,-70.30622
04103,ME,"Portland, ME",Cumberland,Portland,43.69392,-70.2909
04105,ME,"Portland, ME",Cumberland,Falmouth,43.74753,-70.2825
04106,ME,"Portland, ME",Cumberland,South Portland,43.63081,-70.28972
04107,ME,"Portland, ME",Cumberland,Cape Elizabeth,43.5891,-70.23801
04108,ME,"Portland, ME",Cumberland,Peaks Island,43.66057,-70.18901
04109,ME,"Portland, ME",Cumberland,Portland,43.66732,-70.19984
04110,ME,"Portland, ME",Cumberland,Cumberland Foreside,43.75834,-70.19905
04210,ME,"Lewiston, ME",Androscoggin,Auburn,44.08505,-70.24923
04216,ME,,Oxford,Andover,44.70046,-70.8142
04217,ME,,Oxford,Bethel,44.36726,-70.83364
04219,ME,,Oxford,Bryant Pond,44.40924,-70.59285
04220,ME,,Oxford,Buckfield,44.33511,-70.35286
04221,ME,,Oxford,Canton,44.47242,-70.29857
04222,ME,"Lewiston, ME",Androscoggin,Durham,43.9644,-70.12954
04224,ME,,Oxford,Dixfield,44.58001,-70.40058
04226,ME,,Oxford,East Andover,44.62555,-70.70823
04227,ME,,Oxford,East Dixfield,44.56866,-70.29471
04231,ME,,Oxford,Stoneham,44.26438,-70.88777
04234,ME,,Franklin,East Wilton,44.61624,-70.19359
04236,ME,"Lewiston, ME",Androscoggin,Greene,44.19036,-70.14461
04237,ME,,Oxford,Hanover,44.49665,-70.7256
04238,ME,,Oxford,Hebron,44.20785,-70.37937
04239,ME,,Franklin,Jay,44.53062,-70.20935
04240,ME,"Lewiston, ME",Androscoggin,Lewiston,44.09147,-70.16808
04250,ME,"Lewiston, ME",Androscoggin,Lisbon,44.02582,-70.11706
04252,ME,"Lewiston, ME",Androscoggin,Lisbon Falls,44.02719,-70.06011
04253,ME,"Lewiston, ME",Androscoggin,Livermore,44.4079,-70.21503
04254,ME,"Lewiston, ME",Androscoggin,Livermore Falls,44.43249,-70.14265
04255,ME,,Oxford,Greenwood,44.33505,-70.66863
04256,ME,"Lewiston, ME",Androscoggin,Mechanic Falls,44.10294,-70.40733
04257,ME,,Oxford,Mexico,44.57347,-70.51358
04258,ME,"Lewiston, ME",Androscoggin,Minot,44.14829,-70.33794
04259,ME,"Augusta, ME",Kennebec,Monmouth,44.22762,-70.00868
04260,ME,"Portland, ME",Cumberland,New Gloucester,43.96409,-70.29589
04261,ME,,Oxford,Newry,44.5631,-70.91907
04263,ME,"Lewiston, ME",Androscoggin,Leeds,44.29476,-70.13061
04265,ME,"Augusta, ME",Kennebec,North Monmouth,44.27542,-70.04276
04267,ME,,Oxford,North Waterford,44.22478,-70.77084
04268,ME,,Oxford,Norway,44.22842,-70.60651
04270,ME,,Oxford,Oxford,44.11241,-70.51559
04271,ME,,Oxford,Paris,44.26099,-70.49871
04274,ME,"Lewiston, ME",Androscoggin,Poland,44.04634,-70.38999
04275,ME,,Oxford,Roxbury,44.68966,-70.63729
04276,ME,,Oxford,Rumford,44.53469,-70.61541
04280,ME,"Lewiston, ME",Androscoggin,Sabattus,44.1215,-70.06152
04281,ME,,Oxford,South Paris,44.2445,-70.48832
04282,ME,"Lewiston, ME",Androscoggin,Turner,44.26709,-70.24291
04284,ME,"Augusta, ME",Kennebec,Wayne,44.34757,-70.0651
04285,ME,,Franklin,Weld,44.70625,-70.4523
04286,ME,,Oxford,West Bethel,44.4032,-70.86019
04287,ME,"Portland, ME",Sagadahoc,Bowdoin,44.05812,-69.9694
04289,ME,,Oxford,West Paris,44.32108,-70.53248
04290,ME,,Oxford,Peru,44.47354,-70.45058
04292,ME,,Oxford,Sumner,44.37461,-70.44674
04294,ME,,Franklin,Wilton,44.62346,-70.27075
04330,ME,"Augusta, ME",Kennebec,Augusta,44.36387,-69.73729
04341,ME,,Lincoln,Coopers Mills,44.25997,-69.55485
04342,ME,,Lincoln,Dresden,44.07942,-69.73939
04344,ME,"Augusta, ME",Kennebec,Farmingdale,44.2588,-69.82125
04345,ME,"Augusta, ME",Kennebec,Gardiner,44.19816,-69.7841
04346,ME,"Augusta, ME",Kennebec,Randolph,44.23469,-69.75068
04347,ME,"Augusta, ME",Kennebec,Hallowell,44.29047,-69.81399
04348,ME,,Lincoln,Jefferson,44.21521,-69.49922
04349,ME,"Augusta, ME",Kennebec,Kents Hill,44.43734,-70.07014
04350,ME,"Augusta, ME",Kennebec,Litchfield,44.16266,-69.93942
04351,ME,"Augusta, ME",Kennebec,Manchester,44.33174,-69.86082
04352,ME,"Augusta, ME",Kennebec,Mount Vernon,44.46478,-69.96225
04353,ME,,Lincoln,Whitefield,44.2052,-69.6126
04354,ME,,Waldo,Palermo,44.39602,-69.42709
04355,ME,"Augusta, ME",Kennebec,Readfield,44.38227,-69.94915
04357,ME,"Portland, ME",Sagadahoc,Richmond,44.12366,-69.82883
04358,ME,"Augusta, ME",Kennebec,South China,44.41821,-69.53286
04359,ME,"Augusta, ME",Kennebec,South Gardiner,44.17947,-69.76134
04360,ME,"Augusta, ME",Kennebec,Vienna,44.54741,-70.00299
04363,ME,"Augusta, ME",Kennebec,Windsor,44.31101,-69.57807
04364,ME,"Augusta, ME",Kennebec,Winthrop,44.31158,-69.96153
04401,ME,"Bangor, ME",Penobscot,Bangor,44.84711,-68.84654
04406,ME,,Piscataquis,Abbot,45.2186,-69.57816
04408,ME,,Hancock,Aurora,44.9877,-68.23246
04410,ME,"Bangor, ME",Penobscot,Bradford,45.08821,-68.90696
04411,ME,"Bangor, ME",Penobscot,Bradley,44.88634,-68.56672
04412,ME,"Bangor, ME",Penobscot,Brewer,44.78354,-68.73517
04413,ME,,Washington,Brookton,45.55647,-67.8274
04414,ME,,Piscataquis,Brownville,45.40654,-69.08568
04415,ME,,Piscataquis,Brownville Junction,45.35308,-69.05832
04416,ME,,Hancock,Bucksport,44.62725,-68.75286
04417,ME,"Bangor, ME",Penobscot,Burlington,45.19923,-68.36728
04418,ME,"Bangor, ME",Penobscot,Greenbush,45.07572,-68.50689
04419,ME,"Bangor, ME",Penobscot,Carmel,44.7969,-69.03154
04421,ME,,Hancock,Castine,44.4111,-68.79524
04422,ME,"Bangor, ME",Penobscot,Charleston,45.07097,-69.03408
04424,ME,,Washington,Danforth,45.67003,-67.86144
04426,ME,,Piscataquis,Dover Foxcroft,45.1849,-69.15827
04427,ME,"Bangor, ME",Penobscot,Corinth,44.9805,-69.01063
04428,ME,"Bangor, ME",Penobscot,Eddington,44.80643,-68.55584
04429,ME,"Bangor, ME",Hancock,Holden,44.72039,-68.6171
04430,ME,"Bangor, ME",Penobscot,East Millinocket,45.64662,-68.58646
04431,ME,,Hancock,East Orland,44.56453,-68.6678
04434,ME,"Bangor, ME",Penobscot,Etna,44.78529,-69.13385
04435,ME,"Bangor, ME",Penobscot,Exeter,44.96435,-69.13539
04438,ME,,Waldo,Frankfort,44.59856,-68.91904
04441,ME,,Piscataquis,Greenville,45.68984,-69.32252
04442,ME,,Piscataquis,Greenville Junction,45.47446,-69.69538
04443,ME,,Piscataquis,Guilford,45.24412,-69.40572
04444,ME,"Bangor, ME",Penobscot,Hampden,44.72591,-68.94585
04448,ME,"Bangor, ME",Penobscot,Howland,45.31208,-68.71977
04449,ME,"Bangor, ME",Penobscot,Hudson,44.99761,-68.88357
04450,ME,"Bangor, ME",Penobscot,Kenduskeag,44.91593,-68.92797
04451,ME,"Bangor, ME",Aroostook,Kingman,45.6035,-68.21915
04453,ME,"Bangor, ME",Penobscot,Lagrange,45.18229,-68.78244
04454,ME,,Washington,Lambert Lake,45.5222,-67.52516
04455,ME,"Bangor, ME",Penobscot,Lee,45.3223,-68.27511
04456,ME,"Bangor, ME",Penobscot,Levant,44.88645,-68.9977
04457,ME,"Bangor, ME",Penobscot,Lincoln,45.43432,-68.52821
04459,ME,"Bangor, ME",Aroostook,Mattawamkeag,45.58898,-68.33948
04460,ME,"Bangor, ME",Penobscot,Medway,45.64134,-68.52638
04461,ME,"Bangor, ME",Penobscot,Milford,44.98057,-68.57243
04462,ME,"Bangor, ME",Piscataquis,Millinocket,45.86541,-68.93072
04463,ME,,Piscataquis,Milo,45.28117,-68.90569
04464,ME,,Piscataquis,Monson,45.29104,-69.50202
04468,ME,"Bangor, ME",Penobscot,Old Town,45.0263,-68.72323
04469,ME,"Bangor, ME",Penobscot,Orono,44.90251,-68.66624
04471,ME,,Aroostook,Orient,45.8912,-67.8471
04472,ME,,Hancock,Orland,44.57334,-68.67736
04473,ME,"Bangor, ME",Penobscot,Orono,44.88594,-68.71888
04474,ME,"Bangor, ME",Penobscot,Orrington,44.71501,-68.77901
04475,ME,"Bangor, ME",Penobscot,Passadumkeag,45.1845,-68.58681
04476,ME,,Hancock,Penobscot,44.47474,-68.70521
04478,ME,,Somerset,Rockwood,45.7299,-69.76857
04479,ME,,Piscataquis,Sangerville,45.12755,-69.30688
04481,ME,,Piscataquis,Sebec,45.24298,-69.10423
04485,ME,,Piscataquis,Shirley Mills,45.362,-69.61562
04487,ME,"Bangor, ME",Penobscot,Springfield,45.39371,-68.1006
04488,ME,"Bangor, ME",Penobscot,Stetson,44.87586,-69.11143
04489,ME,"Bangor, ME",Penobscot,Stillwater,44.91074,-68.69119
04490,ME,,Washington,Topsfield,45.39527,-67.82458
04491,ME,,Washington,Vanceboro,45.56705,-67.51353
04492,ME,,Washington,Waite,45.34738,-67.6658
04493,ME,"Bangor, ME",Penobscot,West Enfield,45.23853,-68.53301
04495,ME,"Bangor, ME",Penobscot,Winn,45.45464,-68.32985
04496,ME,,Waldo,Winterport,44.65839,-68.91189
04497,ME,"Bangor, ME",Aroostook,Wytopitlock,45.7249,-68.06619
04530,ME,"Portland, ME",Sagadahoc,Bath,43.89156,-69.8306
04535,ME,,Lincoln,Alna,44.08778,-69.63436
04537,ME,,Lincoln,Boothbay,43.90241,-69.62498
04538,ME,,Lincoln,Boothbay Harbor,43.85632,-69.62807
04539,ME,,Lincoln,Bristol,43.96429,-69.50513
04541,ME,,Lincoln,Chamberlain,43.88671,-69.48411
04543,ME,,Lincoln,Damariscotta,44.03446,-69.49211
04544,ME,,Lincoln,East Boothbay,43.83316,-69.58997
04547,ME,,Knox,Friendship,43.99388,-69.32779
04548,ME,"Portland, ME",Sagadahoc,Georgetown,43.81499,-69.74804
04551,ME,,Lincoln,Bremen,44.00648,-69.42701
04553,ME,,Lincoln,Newcastle,44.04787,-69.57145
04554,ME,,Lincoln,New Harbor,43.86348,-69.50481
04555,ME,,Lincoln,Nobleboro,44.10597,-69.47687
04556,ME,,Lincoln,Edgecomb,43.96867,-69.62311
04558,ME,,Lincoln,Pemaquid,43.89974,-69.51499
04562,ME,"Portland, ME",Sagadahoc,Phippsburg,43.78758,-69.82764
04563,ME,,Knox,Cushing,44.0151,-69.25655
04564,ME,,Lincoln,Round Pond,43.93089,-69.46761
04568,ME,,Lincoln,South Bristol,43.89652,-69.56153
04570,ME,,Lincoln,Squirrel Island,43.80844,-69.63088
04571,ME,,Lincoln,Trevett,43.89949,-69.67516
04572,ME,,Lincoln,Waldoboro,44.10984,-69.36956
04573,ME,,Lincoln,Walpole,43.95063,-69.55025
04574,ME,,Knox,Washington,44.2734,-69.39105
04575,ME,,Lincoln,West Boothbay Harbor,43.85383,-69.66016
04576,ME,,Lincoln,Southport,43.82244,-69.6671
04578,ME,,Lincoln,Wiscasset,43.98136,-69.6926
04579,ME,"Portland, ME",Sagadahoc,Woolwich,43.96216,-69.76872
04605,ME,,Hancock,Ellsworth,44.66038,-68.41623
04606,ME,,Washington,Addison,44.57697,-67.70281
04607,ME,,Hancock,Gouldsboro,44.47689,-68.05228
04609,ME,,Hancock,Bar Harbor,44.38518,-68.27108
04611,ME,,Washington,Beals,44.48771,-67.59633
04612,ME,,Hancock,Bernard,44.25954,-68.37722
04613,ME,,Hancock,Birch Harbor,44.37498,-68.03593
04614,ME,,Hancock,Blue Hill,44.41819,-68.58223
04616,ME,,Hancock,Brooklin,44.28346,-68.57069
04617,ME,,Hancock,Brooksville,44.36929,-68.73081
04619,ME,,Washington,Calais,45.13397,-67.22401
04622,ME,,Washington,Cherryfield,44.75555,-67.95143
04623,ME,,Washington,Columbia Falls,44.70786,-67.70824
04624,ME,,Hancock,Corea,44.42438,-67.9877
04625,ME,,Hancock,Cranberry Isles,44.25041,-68.25503
04626,ME,,Washington,Cutler,44.68494,-67.22169
04627,ME,,Hancock,Deer Isle,44.22275,-68.66581
04628,ME,,Washington,Dennysville,44.87275,-67.28238
04630,ME,,Washington,East Machias,44.8471,-67.47287
04631,ME,,Washington,Eastport,44.91373,-67.01834
04634,ME,,Hancock,Franklin,44.63457,-68.22253
04635,ME,,Hancock,Frenchboro,44.11376,-68.35479
04640,ME,,Hancock,Hancock,44.53803,-68.30573
04642,ME,,Hancock,Harborside,44.33906,-68.79591
04643,ME,,Washington,Harrington,44.57876,-67.80562
04645,ME,,Knox,Isle Au Haut,44.05408,-68.6282
04646,ME,,Hancock,Islesford,44.26007,-68.22812
04648,ME,,Washington,Jonesboro,44.65899,-67.59585
04649,ME,,Washington,Jonesport,44.56606,-67.5817
04650,ME,,Hancock,Little Deer Isle,44.28924,-68.71412
04652,ME,,Washington,Lubec,44.82234,-67.07457
04653,ME,,Hancock,Bass Harbor,44.23705,-68.3431
04654,ME,,Washington,Machias,44.78128,-67.57716
04655,ME,,Washington,Machiasport,44.66467,-67.39318
04657,ME,,Washington,Meddybemps,44.97624,-67.41965
04658,ME,,Washington,Milbridge,44.53873,-67.87257
04660,ME,,Hancock,Mount Desert,44.34026,-68.33231
04662,ME,,Hancock,Northeast Harbor,44.30766,-68.28735
04664,ME,,Hancock,Sullivan,44.53906,-68.12797
04666,ME,,Washington,Pembroke,44.97646,-67.22204
04667,ME,,Washington,Perry,44.97853,-67.10413
04668,ME,,Washington,Princeton,45.19846,-67.70543
04669,ME,,Hancock,Prospect Harbor,44.40014,-68.01841
04671,ME,,Washington,Robbinston,45.06618,-67.16247
04673,ME,,Hancock,Sargentville,44.30484,-68.67028
04674,ME,,Hancock,Seal Cove,44.29347,-68.40883
04675,ME,,Hancock,Seal Harbor,44.30083,-68.24223
04676,ME,,Hancock,Sedgwick,44.34741,-68.64238
04677,ME,,Hancock,Sorrento,44.49016,-68.17945
04679,ME,,Hancock,Southwest Harbor,44.27843,-68.33247
04680,ME,,Washington,Steuben,44.50699,-67.94485
04681,ME,,Hancock,Stonington,44.16655,-68.65646
04683,ME,,Hancock,Sunset,44.23596,-68.82368
04684,ME,,Hancock,Surry,44.49335,-68.52796
04685,ME,,Hancock,Swans Island,44.15869,-68.44015
04686,ME,,Washington,Wesley,44.98619,-67.69015
04691,ME,,Washington,Whiting,44.76178,-67.25217
04693,ME,,Hancock,Winter Harbor,44.38479,-68.07828
04694,ME,,Washington,Baileyville,45.09987,-67.46518
04730,ME,,Aroostook,Houlton,46.12574,-67.91471
04732,ME,,Aroostook,Ashland,46.56679,-68.49326
04733,ME,"Bangor, ME",Aroostook,Benedicta,45.74275,-68.40311
04734,ME,,Aroostook,Blaine,46.48479,-67.91955
04735,ME,,Aroostook,Bridgewater,46.38072,-68.02865
04736,ME,,Aroostook,Caribou,46.90661,-68.01998
04737,ME,,Aroostook,Clayton Lake,46.61641,-69.52178
04739,ME,,Aroostook,Eagle Lake,46.97137,-68.61049
04740,ME,,Aroostook,Easton,46.64325,-67.85487
04742,ME,,Aroostook,Fort Fairfield,46.77766,-67.85526
04743,ME,,Aroostook,Fort Kent,47.15427,-68.72512
04745,ME,,Aroostook,Frenchville,47.27371,-68.39936
04746,ME,,Aroostook,Grand Isle,47.24885,-68.12472
04747,ME,,Aroostook,Island Falls,45.94854,-68.19649
04750,ME,,Aroostook,Limestone,46.9582,-67.85718
04756,ME,,Aroostook,Madawaska,47.33054,-68.30176
04757,ME,,Aroostook,Mapleton,46.6141,-68.18278
04758,ME,,Aroostook,Mars Hill,46.55426,-67.84732
04760,ME,,Aroostook,Monticello,46.32354,-67.90928
04761,ME,,Aroostook,New Limerick,46.11857,-67.97183
04762,ME,,Aroostook,New Sweden,46.97574,-68.12094
04763,ME,,Aroostook,Oakfield,46.08068,-68.10371
04764,ME,,Aroostook,Oxbow,46.36843,-68.34229
04765,ME,"Bangor, ME",Penobscot,Patten,46.06884,-68.64477
04766,ME,,Aroostook,Perham,46.88162,-68.23911
04768,ME,,Aroostook,Portage,46.7878,-68.82875
04769,ME,,Aroostook,Presque Isle,46.68676,-67.98737
04772,ME,,Aroostook,Saint Agatha,47.23375,-68.32732
04773,ME,,Aroostook,Saint David,47.27426,-68.22649
04774,ME,,Aroostook,Saint Francis,47.10285,-69.05048
04776,ME,,Aroostook,Sherman,45.8105,-68.31818
04777,ME,"Bangor, ME",Penobscot,Stacyville,45.83515,-68.48952
04779,ME,,Aroostook,Sinclair,47.11615,-68.31162
04780,ME,,Aroostook,Smyrna Mills,46.1677,-68.26924
04781,ME,,Aroostook,Wallagrass,47.14634,-68.61883
04783,ME,,Aroostook,Stockholm,47.03586,-68.18907
04785,ME,,Aroostook,Van Buren,47.12678,-68.00368
04786,ME,,Aroostook,Washburn,46.79207,-68.17878
04787,ME,,Aroostook,Westfield,46.55166,-67.97685
04841,ME,,Knox,Rockland,44.12739,-69.13686
04843,ME,,Knox,Camden,44.22929,-69.08924
04847,ME,,Knox,Hope,44.25104,-69.18962
04848,ME,,Waldo,Islesboro,44.31083,-68.90896
04849,ME,,Waldo,Lincolnville,44.3179,-69.04753
04851,ME,,Knox,Matinicus,43.85227,-68.8916
04852,ME,,Lincoln,Monhegan,43.76561,-69.31235
04853,ME,,Knox,North Haven,44.15172,-68.86311
04854,ME,,Knox,Owls Head,44.04344,-69.08504
04855,ME,,Knox,Port Clyde,43.93797,-69.26958
04856,ME,,Knox,Rockport,44.17798,-69.12007
04858,ME,,Knox,South Thomaston,44.04638,-69.1452
04859,ME,,Knox,Spruce Head,44.00068,-69.16112
04860,ME,,Knox,Tenants Harbor,43.968,-69.22817
04861,ME,,Knox,Thomaston,44.09302,-69.17483
04862,ME,,Knox,Union,44.26186,-69.27703
04863,ME,,Knox,Vinalhaven,44.07898,-68.84384
04864,ME,,Knox,Warren,44.12946,-69.24481
04901,ME,"Augusta, ME",Kennebec,Waterville,44.55449,-69.57037
04910,ME,"Augusta, ME",Kennebec,Albion,44.517,-69.44123
04911,ME,,Somerset,Anson,44.78039,-69.96112
04912,ME,,Somerset,Athens,44.97286,-69.68045
04915,ME,,Waldo,Belfast,44.46643,-69.04156
04917,ME,"Augusta, ME",Kennebec,Belgrade,44.48959,-69.84167
04918,ME,"Augusta, ME",Kennebec,Belgrade Lakes,44.55027,-69.86651
04920,ME,,Somerset,Bingham,45.11323,-69.83863
04921,ME,,Waldo,Brooks,44.57256,-69.13326
04922,ME,,Waldo,Burnham,44.68739,-69.38255
04923,ME,,Somerset,Cambridge,45.03722,-69.44533
04924,ME,,Somerset,Canaan,44.77922,-69.54967
04925,ME,,Somerset,Caratunk,45.21477,-69.90509
04926,ME,"Augusta, ME",Kennebec,China Village,44.48035,-69.51521
04927,ME,"Augusta, ME",Kennebec,Clinton,44.67021,-69.53589
04928,ME,"Bangor, ME",Penobscot,Corinna,44.94973,-69.25695
04929,ME,,Somerset,Detroit,44.76238,-69.31131
04930,ME,"Bangor, ME",Penobscot,Dexter,45.02656,-69.32835
04932,ME,"Bangor, ME",Penobscot,Dixmont,44.6957,-69.13335
04936,ME,,Franklin,Eustis,45.32923,-70.62715
04937,ME,,Somerset,Fairfield,44.63546,-69.67635
04938,ME,,Franklin,Farmington,44.65881,-70.10329
04939,ME,"Bangor, ME",Penobscot,Garland,45.05436,-69.15859
04940,ME,,Franklin,Farmington Falls,44.62018,-70.07508
04941,ME,,Waldo,Freedom,44.4654,-69.3017
04942,ME,,Somerset,Harmony,45.04148,-69.59241
04943,ME,,Somerset,Hartland,44.87994,-69.52054
04944,ME,,Somerset,Hinckley,44.68737,-69.64237
04945,ME,,Somerset,Jackman,45.57669,-70.27974
04947,ME,,Franklin,Kingfield,45.03319,-70.2391
04949,ME,,Waldo,Liberty,44.36712,-69.34029
04950,ME,,Somerset,Madison,44.83241,-69.80556
04951,ME,,Waldo,Monroe,44.60716,-69.04575
04952,ME,,Waldo,Morrill,44.40934,-69.14261
04953,ME,"Bangor, ME",Penobscot,Newport,44.86017,-69.23297
04955,ME,,Franklin,New Sharon,44.63998,-70.00799
04956,ME,,Franklin,New Vineyard,44.80533,-70.11215
04957,ME,,Somerset,Norridgewock,44.70419,-69.8471
04958,ME,,Somerset,North Anson,44.90561,-69.92494
04961,ME,,Somerset,New Portland,45.16024,-70.1665
04963,ME,"Augusta, ME",Kennebec,Oakland,44.56621,-69.81463
04964,ME,,Oxford,Oquossoc,44.9355,-70.83584
04965,ME,,Somerset,Palmyra,44.84563,-69.36272
04966,ME,,Franklin,Phillips,44.82476,-70.47877
04967,ME,,Somerset,Pittsfield,44.77138,-69.43866
04969,ME,"Bangor, ME",Penobscot,Plymouth,44.77019,-69.22461
04970,ME,,Franklin,Rangeley,45.00032,-70.63519
04971,ME,,Somerset,Saint Albans,44.93191,-69.39225
04973,ME,,Waldo,Searsmont,44.36229,-69.19303
04974,ME,,Waldo,Searsport,44.4893,-68.92996
04975,ME,,Somerset,Shawmut,44.62549,-69.58837
04976,ME,,Somerset,Skowhegan,44.79873,-69.66951
04978,ME,,Somerset,Smithfield,44.63466,-69.80789
04979,ME,,Somerset,Solon,44.94105,-69.79731
04981,ME,,Waldo,Stockton Springs,44.53228,-68.85941
04982,ME,,Franklin,Stratton,45.11443,-70.40494
04983,ME,,Franklin,Strong,44.92171,-70.30599
04984,ME,,Franklin,Temple,44.69648,-70.28054
04985,ME,,Somerset,West Forks,45.3751,-69.8746
04986,ME,,Waldo,Thorndike,44.55286,-69.22354
04987,ME,,Waldo,Troy,44.67915,-69.25361
04988,ME,"Augusta, ME",Waldo,Unity,44.59588,-69.35959
04989,ME,"Augusta, ME",Kennebec,Vassalboro,44.4299,-69.64784
04992,ME,,Franklin,West Farmington,44.65983,-70.15584
05001,VT,,Windsor,White River Junction,43.67309,-72.37943
05009,VT,,Windsor,White River Junction,43.64769,-72.34395
05030,VT,,Windsor,Ascutney,43.39989,-72.40981
05031,VT,,Windsor,Barnard,43.72361,-72.5872
05032,VT,,Windsor,Bethel,43.80193,-72.65708
05033,VT,,Orange,Bradford,44.00229,-72.16412
05034,VT,,Windsor,Bridgewater,43.58921,-72.62178
05035,VT,,Windsor,Bridgewater Corners,43.61723,-72.67998
05036,VT,,Orange,Brookfield,44.026,-72.57843
05037,VT,,Windsor,Brownsville,43.46033,-72.48371
05038,VT,,Orange,Chelsea,43.99313,-72.45859
05039,VT,,Orange,Corinth,44.03407,-72.2975
05040,VT,,Orange,East Corinth,44.06796,-72.20438
05041,VT,,Orange,East Randolph,43.96702,-72.54264
05042,VT,,Caledonia,East Ryegate,44.24013,-72.1053
05043,VT,,Orange,East Thetford,43.80658,-72.21194
05045,VT,,Orange,Fairlee,43.9144,-72.19881
05046,VT,,Caledonia,Groton,44.23864,-72.25024
05048,VT,,Windsor,Hartland,43.5798,-72.42692
05050,VT,,Caledonia,McIndoe Falls,44.26442,-72.06414
05051,VT,,Orange,Newbury,44.08525,-72.11753
05052,VT,,Windsor,North Hartland,43.6008,-72.35698
05053,VT,,Windsor,North Pomfret,43.71799,-72.48362
05055,VT,,Windsor,Norwich,43.75481,-72.31145
05056,VT,,Windsor,Plymouth,43.52895,-72.72397
05058,VT,,Orange,Post Mills,43.87917,-72.26999
05059,VT,,Windsor,Quechee,43.64233,-72.43061
05060,VT,,Orange,Randolph,43.96199,-72.68594
05061,VT,,Orange,Randolph Center,43.93023,-72.58087
05062,VT,,Windsor,Reading,43.5012,-72.58358
05065,VT,,Windsor,Sharon,43.79079,-72.41617
05067,VT,,Windsor,South Pomfret,43.69162,-72.53944
05068,VT,,Windsor,South Royalton,43.79188,-72.52931
05069,VT,,Orange,South Ryegate,44.17366,-72.14317
05070,VT,,Orange,South Strafford,43.84225,-72.35099
05071,VT,,Windsor,South Woodstock,43.56461,-72.56842
05072,VT,,Orange,Strafford,43.88132,-72.38545
05073,VT,,Windsor,Taftsville,43.62901,-72.46108
05075,VT,,Orange,Thetford Center,43.84356,-72.28255
05076,VT,,Orange,Topsham,44.14503,-72.22659
05077,VT,,Orange,Tunbridge,43.89961,-72.47789
05079,VT,,Orange,Vershire,43.95622,-72.32214
05081,VT,,Orange,Wells River,44.14292,-72.08451
05083,VT,,Orange,West Fairlee,43.9184,-72.26782
05084,VT,,Windsor,West Hartford,43.72791,-72.45177
05086,VT,,Orange,West Topsham,44.1182,-72.30249
05088,VT,,Windsor,Wilder,43.67332,-72.30726
05089,VT,,Windsor,Windsor,43.49686,-72.4515
05091,VT,,Windsor,Woodstock,43.64707,-72.55165
05101,VT,,Windham,Bellows Falls,43.1783,-72.48333
05141,VT,,Windham,Cambridgeport,43.15615,-72.55929
05142,VT,,Windsor,Cavendish,43.40454,-72.58457
05143,VT,,Windsor,Chester,43.26267,-72.63095
05146,VT,,Windham,Grafton,43.17867,-72.62307
05148,VT,"Bennington, VT",Windham,Londonderry,43.24503,-72.81224
05149,VT,,Windsor,Ludlow,43.40368,-72.7029
05150,VT,,Windsor,North Springfield,43.33653,-72.52727
05151,VT,,Windsor,Perkinsville,43.39374,-72.49566
05152,VT,"Bennington, VT",Bennington,Peru,43.251,-72.92008
05153,VT,,Windsor,Proctorsville,43.42885,-72.63487
05154,VT,,Windham,Saxtons River,43.13558,-72.53424
05155,VT,"Bennington, VT",Windham,South Londonderry,43.17717,-72.8228
05156,VT,,Windsor,Springfield,43.30719,-72.46928
05158,VT,,Windham,Westminster,43.10299,-72.47296
05161,VT,,Windsor,Weston,43.3166,-72.8067
05201,VT,"Bennington, VT",Bennington,Bennington,42.87652,-73.1426
05250,VT,"Bennington, VT",Bennington,Arlington,43.12048,-73.19337
05251,VT,"Bennington, VT",Bennington,Dorset,43.26189,-73.08269
05252,VT,"Bennington, VT",Bennington,East Arlington,43.06642,-73.06132
05253,VT,"Bennington, VT",Bennington,East Dorset,43.25235,-72.99913
05254,VT,"Bennington, VT",Bennington,Manchester,43.15937,-73.06911
05255,VT,"Bennington, VT",Bennington,Manchester Center,43.16696,-73.06685
05257,VT,"Bennington, VT",Bennington,North Bennington,42.96538,-73.25156
05260,VT,"Bennington, VT",Bennington,North Pownal,42.81594,-73.26173
05261,VT,"Bennington, VT",Bennington,Pownal,42.77516,-73.21273
05262,VT,"Bennington, VT",Bennington,Shaftsbury,42.97935,-73.12066
05301,VT,,Windham,Brattleboro,42.84346,-72.65901
05340,VT,"Bennington, VT",Bennington,Bondville,43.16215,-72.93486
05341,VT,,Windham,East Dover,42.96407,-72.7972
05342,VT,,Windham,Jacksonville,42.77468,-72.80015
05343,VT,,Windham,Jamaica,43.09744,-72.80105
05344,VT,,Windham,Marlboro,42.83896,-72.73257
05345,VT,,Windham,Newfane,42.99516,-72.66747
05346,VT,,Windham,Putney,43.02337,-72.53043
05350,VT,"Bennington, VT",Bennington,Readsboro,42.79879,-72.97187
05351,VT,,Windham,South Newfane,42.92867,-72.73728
05352,VT,"Bennington, VT",Bennington,Stamford,42.78796,-73.07862
05353,VT,,Windham,Townshend,43.06501,-72.66484
05354,VT,,Windham,Vernon,42.76211,-72.52553
05355,VT,,Windham,Wardsboro,43.02079,-72.80645
05356,VT,,Windham,West Dover,42.95423,-72.86952
05358,VT,,Windham,West Halifax,42.77396,-72.73164
05359,VT,,Windham,West Townshend,43.15184,-72.72121
05360,VT,,Windham,West Wardsboro,43.02778,-72.94378
05361,VT,,Windham,Whitingham,42.78021,-72.87935
05362,VT,,Windham,Williamsville,42.94609,-72.6816
05363,VT,"Bennington, VT",Windham,Wilmington,42.88301,-72.89554
05401,VT,"Burlington, VT",Chittenden,Burlington,44.47484,-73.21758
05403,VT,"Burlington, VT",Chittenden,South Burlington,44.447,-73.17229
05404,VT,"Burlington, VT",Chittenden,Winooski,44.49483,-73.18467
05405,VT,"Burlington, VT",Chittenden,Burlington,44.47475,-73.19649
05408,VT,"Burlington, VT",Chittenden,Burlington,44.48969,-73.27139
05439,VT,"Burlington, VT",Chittenden,Colchester,44.49573,-73.16524
05440,VT,"Burlington, VT",Grand Isle,Alburgh,44.95214,-73.2848
05441,VT,"Burlington, VT",Franklin,Bakersfield,44.7686,-72.78669
05442,VT,,Lamoille,Belvidere Center,44.76164,-72.68043
05443,VT,,Addison,Bristol,44.12976,-73.03347
05444,VT,"Burlington, VT",Lamoille,Cambridge,44.62628,-72.88242
05445,VT,"Burlington, VT",Chittenden,Charlotte,44.30896,-73.23593
05446,VT,"Burlington, VT",Chittenden,Colchester,44.5541,-73.21647
05447,VT,"Burlington, VT",Franklin,East Berkshire,44.93615,-72.70447
05448,VT,"Burlington, VT",Franklin,East Fairfield,44.75374,-72.8872
05450,VT,"Burlington, VT",Franklin,Enosburg Falls,44.89075,-72.79074
05452,VT,"Burlington, VT",Chittenden,Essex Junction,44.5238,-73.06479
05454,VT,"Burlington, VT",Franklin,Fairfax,44.7056,-73.02294
05455,VT,"Burlington, VT",Franklin,Fairfield,44.80352,-72.96568
05456,VT,,Addison,Ferrisburgh,44.20776,-73.25796
05457,VT,"Burlington, VT",Franklin,Franklin,44.97294,-72.91832
05458,VT,"Burlington, VT",Grand Isle,Grand Isle,44.71838,-73.29837
05459,VT,"Burlington, VT",Franklin,Highgate Center,44.95568,-73.01861
05461,VT,"Burlington, VT",Chittenden,Hinesburg,44.32094,-73.09176
05462,VT,"Burlington, VT",Chittenden,Huntington,44.29909,-72.95228
05463,VT,"Burlington, VT",Grand Isle,Isle La Motte,44.86297,-73.34254
05464,VT,"Burlington, VT",Lamoille,Jeffersonville,44.65469,-72.81897
05465,VT,"Burlington, VT",Chittenden,Jericho,44.45882,-72.93058
05468,VT,"Burlington, VT",Chittenden,Milton,44.65378,-73.15343
05471,VT,"Burlington, VT",Franklin,Montgomery Center,44.85739,-72.58942
05472,VT,,Addison,New Haven,44.11377,-73.1611
05473,VT,,Addison,North Ferrisburgh,44.24119,-73.19346
05474,VT,"Burlington, VT",Grand Isle,North Hero,44.83445,-73.26687
05476,VT,"Burlington, VT",Franklin,Richford,44.96055,-72.6457
05477,VT,"Burlington, VT",Chittenden,Richmond,44.3936,-72.99152
05478,VT,"Burlington, VT",Franklin,Saint Albans,44.7941,-73.11714
05481,VT,"Burlington, VT",Franklin,Saint Albans Bay,44.80833,-73.1396
05482,VT,"Burlington, VT",Chittenden,Shelburne,44.39057,-73.24134
05483,VT,"Burlington, VT",Franklin,Sheldon,44.88322,-72.98484
05485,VT,"Burlington, VT",Franklin,Sheldon Springs,44.90405,-72.97567
05486,VT,"Burlington, VT",Grand Isle,South Hero,44.62958,-73.31444
05487,VT,"Burlington, VT",Addison,Starksboro,44.23082,-73.01096
05488,VT,"Burlington, VT",Franklin,Swanton,44.92214,-73.14286
05489,VT,"Burlington, VT",Chittenden,Underhill,44.5458,-72.89471
05491,VT,,Addison,Vergennes,44.12101,-73.32111
05492,VT,,Lamoille,Waterville,44.71324,-72.75853
05494,VT,"Burlington, VT",Chittenden,Westford,44.60472,-73.01523
05495,VT,"Burlington, VT",Chittenden,Williston,44.42901,-73.09197
05602,VT,"Barre, VT",Washington,Montpelier,44.2848,-72.61498
05640,VT,"Barre, VT",Washington,Adamant,44.34734,-72.49675
05641,VT,"Barre, VT",Washington,Barre,44.18602,-72.45108
05647,VT,"Barre, VT",Washington,Cabot,44.41001,-72.29126
05648,VT,"Barre, VT",Washington,Calais,44.38372,-72.49355
05649,VT,,Orange,East Barre,44.14004,-72.36589
05650,VT,"Barre, VT",Washington,East Calais,44.4002,-72.44235
05651,VT,"Barre, VT",Washington,East Montpelier,44.27777,-72.49246
05652,VT,,Lamoille,Eden,44.72824,-72.58674
05653,VT,,Lamoille,Eden Mills,44.70141,-72.49275
05654,VT,"Barre, VT",Orange,Graniteville,44.14053,-72.48092
05655,VT,,Lamoille,Hyde Park,44.62461,-72.56462
05656,VT,,Lamoille,Johnson,44.64898,-72.68825
05658,VT,"Barre, VT",Washington,Marshfield,44.35921,-72.35399
05660,VT,"Barre, VT",Washington,Moretown,44.24733,-72.76808
05661,VT,,Lamoille,Morrisville,44.53743,-72.61724
05663,VT,"Barre, VT",Washington,Northfield,44.14946,-72.67239
05664,VT,"Barre, VT",Washington,Northfield Falls,44.16718,-72.65316
05666,VT,,Washington,North Montpelier,44.34125,-72.43873
05667,VT,"Barre, VT",Washington,Plainfield,44.28122,-72.3986
05669,VT,"Barre, VT",Washington,Roxbury,44.05325,-72.75155
05670,VT,,Washington,South Barre,44.17799,-72.50558
05672,VT,,Lamoille,Stowe,44.48151,-72.72174
05673,VT,"Barre, VT",Washington,Waitsfield,44.19371,-72.84356
05674,VT,"Barre, VT",Washington,Warren,44.11112,-72.86081
05675,VT,,Orange,Washington,44.07386,-72.41821
05676,VT,"Barre, VT",Washington,Waterbury,44.34825,-72.80984
05677,VT,"Barre, VT",Washington,Waterbury Center,44.39194,-72.70841
05678,VT,"Barre, VT",Washington,Websterville,44.15577,-72.47445
05679,VT,,Orange,Williamstown,44.10677,-72.54052
05680,VT,,Lamoille,Wolcott,44.53785,-72.46838
05681,VT,"Barre, VT",Washington,Woodbury,44.45377,-72.38016
05682,VT,"Barre, VT",Washington,Worcester,44.40354,-72.57219
05701,VT,"Rutland, VT",Rutland,Rutland,43.63365,-72.91368
05730,VT,"Rutland, VT",Rutland,Belmont,43.40262,-72.81508
05731,VT,,Rutland,Benson,43.7532,-73.28857
05732,VT,"Rutland, VT",Rutland,Bomoseen,43.67998,-73.18648
05733,VT,"Rutland, VT",Rutland,Brandon,43.81746,-73.09216
05734,VT,,Addison,Bridport,43.98243,-73.33286
05735,VT,"Rutland, VT",Rutland,Castleton,43.64475,-73.15456
05736,VT,"Rutland, VT",Rutland,Center Rutland,43.60483,-73.01273
05737,VT,"Rutland, VT",Rutland,Chittenden,43.76778,-72.90434
05738,VT,"Rutland, VT",Rutland,Cuttingsville,43.52895,-72.85637
05739,VT,"Rutland, VT",Rutland,Danby,43.34488,-73.0295
05742,VT,"Rutland, VT",Rutland,East Wallingford,43.43685,-72.9045
05743,VT,"Rutland, VT",Rutland,Fair Haven,43.67118,-73.30726
05744,VT,"Rutland, VT",Rutland,Florence,43.69034,-73.08272
05746,VT,,Windsor,Gaysville,43.72098,-72.78836
05747,VT,,Addison,Granville,44.00354,-72.85494
05748,VT,,Addison,Hancock,43.92004,-72.91064
05751,VT,"Rutland, VT",Rutland,Killington,43.6542,-72.78941
05753,VT,,Addison,Middlebury,43.9991,-73.17403
05757,VT,"Rutland, VT",Rutland,Middletown Springs,43.48279,-73.12325
05758,VT,"Rutland, VT",Rutland,Mount Holly,43.44797,-72.78386
05759,VT,"Rutland, VT",Rutland,North Clarendon,43.53926,-72.96483
05760,VT,"Rutland, VT",Addison,Orwell,43.80359,-73.29517
05761,VT,"Rutland, VT",Rutland,Pawlet,43.34786,-73.14855
05762,VT,"Rutland, VT",Rutland,Pittsfield,43.79246,-72.8291
05763,VT,"Rutland, VT",Rutland,Pittsford,43.73678,-72.98946
05764,VT,"Rutland, VT",Rutland,Poultney,43.52854,-73.19401
05765,VT,"Rutland, VT",Rutland,Proctor,43.65068,-73.03648
05766,VT,,Addison,Ripton,43.98833,-72.99072
05767,VT,,Windsor,Rochester,43.87513,-72.82878
05768,VT,,Bennington,Rupert,43.29846,-73.22168
05769,VT,,Addison,Salisbury,43.91948,-73.11651
05770,VT,,Addison,Shoreham,43.88662,-73.32771
05772,VT,,Windsor,Stockbridge,43.75989,-72.74003
05773,VT,"Rutland, VT",Rutland,Wallingford,43.40902,-72.96858
05774,VT,"Rutland, VT",Rutland,Wells,43.42708,-73.17435
05775,VT,"Rutland, VT",Rutland,West Pawlet,43.35437,-73.22804
05776,VT,"Bennington, VT",Bennington,West Rupert,43.24494,-73.20392
05777,VT,"Rutland, VT",Rutland,West Rutland,43.5552,-73.05504
05778,VT,"Rutland, VT",Addison,Whiting,43.87279,-73.21228
05819,VT,,Caledonia,Saint Johnsbury,44.40397,-71.98837
05820,VT,,Orleans,Albany,44.74862,-72.37351
05821,VT,,Caledonia,Barnet,44.3175,-72.10866
05822,VT,,Orleans,Barton,44.75555,-72.15478
05824,VT,,Essex,Concord,44.43741,-71.86449
05825,VT,,Orleans,Coventry,44.86019,-72.25664
05826,VT,,Orleans,Craftsbury,44.6444,-72.40404
05827,VT,,Orleans,Craftsbury Common,44.68135,-72.36198
05828,VT,,Caledonia,Danville,44.43748,-72.12334
05829,VT,,Orleans,Derby,44.95349,-72.0759
05830,VT,,Orleans,Derby Line,44.97717,-71.98278
05832,VT,,Caledonia,East Burke,44.59546,-71.91027
05833,VT,,Orleans,East Charleston,44.83182,-71.96965
05836,VT,,Caledonia,East Hardwick,44.5196,-72.25173
05837,VT,,Essex,East Haven,44.66868,-71.8386
05839,VT,,Orleans,Glover,44.67342,-72.21171
05840,VT,,Essex,Granby,44.61297,-71.73129
05841,VT,,Orleans,Greensboro,44.60794,-72.30232
05842,VT,,Orleans,Greensboro Bend,44.57966,-72.24453
05843,VT,"Barre, VT",Caledonia,Hardwick,44.50355,-72.33366
05845,VT,,Orleans,Irasburg,44.79146,-72.30699
05846,VT,,Essex,Island Pond,44.82671,-71.82795
05847,VT,,Orleans,Lowell,44.79165,-72.45679
05850,VT,,Caledonia,Lyndon Center,44.55955,-72.03417
05851,VT,,Caledonia,Lyndonville,44.55297,-72.05732
05853,VT,,Orleans,Morgan,44.89499,-71.96167
05855,VT,,Orleans,Newport,44.92829,-72.1943
05857,VT,,Orleans,Newport Center,44.93381,-72.3092
05858,VT,,Essex,North Concord,44.53587,-71.8046
05859,VT,,Orleans,North Troy,44.95987,-72.43833
05860,VT,,Orleans,Orleans,44.80018,-72.10353
05862,VT,,Caledonia,Peacham,44.31971,-72.23133
05866,VT,,Caledonia,Sheffield,44.63863,-72.12699
05867,VT,,Caledonia,Sutton,44.66505,-72.04366
05868,VT,,Orleans,Troy,44.91881,-72.3675
05871,VT,,Caledonia,West Burke,44.68367,-71.95193
05872,VT,,Orleans,West Charleston,44.86059,-72.03473
05873,VT,,Caledonia,West Danville,44.40619,-72.21841
05874,VT,,Orleans,Westfield,44.87546,-72.46172
05875,VT,,Orleans,Barton,44.70947,-72.26753
05901,VT,,Essex,Averill,44.94197,-71.68079
05902,VT,,Essex,Beecher Falls,45.00881,-71.49472
05903,VT,,Essex,Canaan,44.9379,-71.58286
05904,VT,,Essex,Gilman,44.41597,-71.70762
05905,VT,,Essex,Guildhall,44.70151,-71.66672
05906,VT,,Essex,Lunenburg,44.47431,-71.71538
05907,VT,,Essex,Norton,44.9502,-71.82577
06001,CT,"Hartford, CT",Capitol,Avon,41.79185,-72.85107
06002,CT,"Hartford, CT",Capitol,Bloomfield,41.84286,-72.73714
06010,CT,"Hartford, CT",Naugatuck Valley,Bristol,41.681,-72.94065
06013,CT,"Hartford, CT",Northwest Hills,Burlington,41.7598,-72.95895
06016,CT,"Hartford, CT",Capitol,Broad Brook,41.90417,-72.54438
06018,CT,"Torrington, CT",Northwest Hills,Canaan,42.02872,-73.29807
06019,CT,"Hartford, CT",Capitol,Canton,41.8592,-72.90717
06020,CT,"Hartford, CT",Capitol,Canton Center,41.86283,-72.90991
06021,CT,"Torrington, CT",Northwest Hills,Colebrook,42.00152,-73.08078
06022,CT,"Hartford, CT",Capitol,Collinsville,41.86595,-72.92749
06023,CT,"Hartford, CT",Capitol,East Berlin,41.61355,-72.72072
06024,CT,"Torrington, CT",Northwest Hills,East Canaan,42.00812,-73.28374
06026,CT,"Hartford, CT",Capitol,East Granby,41.94242,-72.74093
06027,CT,"Hartford, CT",Northwest Hills,East Hartland,42.00403,-72.91112
06029,CT,"Hartford, CT",Capitol,Ellington,41.91439,-72.4535
06031,CT,"Torrington, CT",Northwest Hills,Falls Village,41.95788,-73.31733
06032,CT,"Hartford, CT",Capitol,Farmington,41.72528,-72.83147
06033,CT,"Hartford, CT",Capitol,Glastonbury,41.70593,-72.53915
06035,CT,"Hartford, CT",Capitol,Granby,41.9608,-72.80179
06037,CT,"Hartford, CT",Capitol,Berlin,41.61148,-72.7775
06039,CT,"Torrington, CT",Northwest Hills,Lakeville,41.95001,-73.44379
06040,CT,"Hartford, CT",Capitol,Manchester,41.7616,-72.52247
06042,CT,"Hartford, CT",Capitol,Manchester,41.79743,-72.52704
06043,CT,"Hartford, CT",Capitol,Bolton,41.76647,-72.43903
06051,CT,"Hartford, CT",Capitol,New Britain,41.66519,-72.76983
06052,CT,"Hartford, CT",Capitol,New Britain,41.65736,-72.80506
06053,CT,"Hartford, CT",Capitol,New Britain,41.68874,-72.7941
06057,CT,"Torrington, CT",Northwest Hills,New Hartford,41.84417,-73.00552
06058,CT,"Torrington, CT",Northwest Hills,Norfolk,41.97186,-73.1958
06059,CT,"Torrington, CT",Capitol,North Canton,41.89054,-72.88833
06060,CT,"Hartford, CT",Capitol,North Granby,42.00687,-72.84594
06061,CT,"Torrington, CT",Northwest Hills,Pine Meadow,41.87524,-72.96716
06062,CT,"Hartford, CT",Capitol,Plainville,41.67338,-72.86079
06063,CT,"Torrington, CT",Northwest Hills,Barkhamsted,41.93053,-72.97096
06065,CT,"Hartford, CT",Northwest Hills,Riverton,41.97795,-73.00054
06066,CT,"Hartford, CT",Capitol,Vernon Rockville,41.83641,-72.46063
06067,CT,"Hartford, CT",Capitol,Rocky Hill,41.6574,-72.66259
06068,CT,"Torrington, CT",Northwest Hills,Salisbury,42.01404,-73.42121
06069,CT,"Torrington, CT",Northwest Hills,Sharon,41.85392,-73.4448
